[
    {
        "name": "HbyGdtQuAS",
        "address": "nysrbsIFEcUBdxa",
        "service": "Service 2",
        "category": "CufQgDhP",
        "location": {
            "latitude": 28.21114646876762,
            "longitude": 110.20616490025735
        },
        "timestamp": "2024-06-06T17:02:45.844535"
    },
    {
        "name": "OkEFSqnxug",
        "address": "xtvlBxWemRmlKfv",
        "service": "Service 2",
        "category": "dHdyDJTc",
        "location": {
            "latitude": 28.21348103486678,
            "longitude": 110.21175553957731
        },
        "timestamp": "2024-06-06T17:02:45.844546"
    },
    {
        "name": "KvzxdsnimQ",
        "address": "ojuiTxUTuIHxVrS",
        "service": "Service 3",
        "category": "rDErkGyl",
        "location": {
            "latitude": 28.221661781830896,
            "longitude": 110.21056021610117
        },
        "timestamp": "2024-06-06T17:02:45.844550"
    },
    {
        "name": "YfeMOnALmS",
        "address": "fAblvgBILIrTeYa",
        "service": "Service 1",
        "category": "iPOsPaOn",
        "location": {
            "latitude": 28.21232789053095,
            "longitude": 110.21325478281886
        },
        "timestamp": "2024-06-06T17:02:45.844554"
    },
    {
        "name": "xwjCcHFpsQ",
        "address": "CmBPtYovaylkhTO",
        "service": "Service 2",
        "category": "XRnWKrsy",
        "location": {
            "latitude": 28.216862573413394,
            "longitude": 110.20217916875241
        },
        "timestamp": "2024-06-06T17:02:45.844557"
    },
    {
        "name": "MFkFNkRTvv",
        "address": "fvssjeeHqhwqiAj",
        "service": "Service 2",
        "category": "XdfDnyaD",
        "location": {
            "latitude": 28.224286770237406,
            "longitude": 110.2087179134012
        },
        "timestamp": "2024-06-06T17:02:45.844561"
    },
    {
        "name": "dytqMNhLGf",
        "address": "chFnqVATDvcfeRY",
        "service": "Service 2",
        "category": "rEKHyOmy",
        "location": {
            "latitude": 28.223878918223786,
            "longitude": 110.20869771602797
        },
        "timestamp": "2024-06-06T17:02:45.844564"
    },
    {
        "name": "nmmKfCDqHP",
        "address": "WovKcfhPHELtUIc",
        "service": "Service 3",
        "category": "VuUEOjRF",
        "location": {
            "latitude": 28.223896502112726,
            "longitude": 110.20975419108302
        },
        "timestamp": "2024-06-06T17:02:45.844567"
    },
    {
        "name": "IGqqGTqKZG",
        "address": "HuVjrDmSxyzpDdb",
        "service": "Service 1",
        "category": "SOonQZMJ",
        "location": {
            "latitude": 28.212900076399226,
            "longitude": 110.21343317863774
        },
        "timestamp": "2024-06-06T17:02:45.844570"
    },
    {
        "name": "ixVAsTaJQa",
        "address": "QbTltLBusREmVnF",
        "service": "Service 1",
        "category": "YKJjPvrN",
        "location": {
            "latitude": 28.215187090381917,
            "longitude": 110.20717315231781
        },
        "timestamp": "2024-06-06T17:02:45.844573"
    },
    {
        "name": "HfjawVfOtu",
        "address": "YkeqYPUOBTPZQJH",
        "service": "Service 3",
        "category": "yQChFufs",
        "location": {
            "latitude": 28.215444298553482,
            "longitude": 110.20090801908461
        },
        "timestamp": "2024-06-06T17:02:45.844576"
    },
    {
        "name": "ROOepxScIa",
        "address": "xNNlcdymOrMOhvH",
        "service": "Service 3",
        "category": "QvKSnVaq",
        "location": {
            "latitude": 28.20901971498947,
            "longitude": 110.20483651935423
        },
        "timestamp": "2024-06-06T17:02:45.844579"
    },
    {
        "name": "TzfoNCVgnA",
        "address": "CJQQhBzrThfYPSb",
        "service": "Service 2",
        "category": "mAKeDzrs",
        "location": {
            "latitude": 28.215527953826257,
            "longitude": 110.20709506766642
        },
        "timestamp": "2024-06-06T17:02:45.844582"
    },
    {
        "name": "TDaTRPDuMM",
        "address": "UDkeXUbdfmbqvgL",
        "service": "Service 3",
        "category": "CUCsOGiq",
        "location": {
            "latitude": 28.221643979684497,
            "longitude": 110.20690113418624
        },
        "timestamp": "2024-06-06T17:02:45.844585"
    },
    {
        "name": "UnMrufhKrb",
        "address": "wFeQRcWKfosSjYn",
        "service": "Service 1",
        "category": "dDmAmddU",
        "location": {
            "latitude": 28.220793595850896,
            "longitude": 110.19922083948103
        },
        "timestamp": "2024-06-06T17:02:45.844588"
    },
    {
        "name": "XDokXzgMkq",
        "address": "LhYYQvOwYtHjZqm",
        "service": "Service 1",
        "category": "QLjIbhSs",
        "location": {
            "latitude": 28.20841802236635,
            "longitude": 110.2000185533261
        },
        "timestamp": "2024-06-06T17:02:45.844591"
    },
    {
        "name": "XGlChZPzLI",
        "address": "HxlKBWLEQuDCPfp",
        "service": "Service 2",
        "category": "orjQdpbh",
        "location": {
            "latitude": 28.21143533746806,
            "longitude": 110.2115742303479
        },
        "timestamp": "2024-06-06T17:02:45.844594"
    },
    {
        "name": "xFruEADmWG",
        "address": "BtvFEoMNlwwOMme",
        "service": "Service 1",
        "category": "xLVoPPNm",
        "location": {
            "latitude": 28.21148498210867,
            "longitude": 110.21284345108259
        },
        "timestamp": "2024-06-06T17:02:45.844597"
    },
    {
        "name": "pccVBAEjgq",
        "address": "nxUnjGPQZSQWgaw",
        "service": "Service 3",
        "category": "fQugjNiD",
        "location": {
            "latitude": 28.21552492651579,
            "longitude": 110.21274911702889
        },
        "timestamp": "2024-06-06T17:02:45.844600"
    },
    {
        "name": "WULxfssjIC",
        "address": "xqsoYdYGrGVDLLX",
        "service": "Service 3",
        "category": "hFbyWYyx",
        "location": {
            "latitude": 28.222104743133567,
            "longitude": 110.20573777931496
        },
        "timestamp": "2024-06-06T17:02:45.844603"
    },
    {
        "name": "RJGzaWEyUK",
        "address": "MbgXPqhKxdpgpiS",
        "service": "Service 1",
        "category": "UIEemZPB",
        "location": {
            "latitude": 28.220594452706376,
            "longitude": 110.20879867878485
        },
        "timestamp": "2024-06-06T17:02:45.844608"
    },
    {
        "name": "ueJzLCQCsz",
        "address": "vwyuuuJspqAAMqX",
        "service": "Service 1",
        "category": "ERyAkMPB",
        "location": {
            "latitude": 28.215402513093096,
            "longitude": 110.2155056585441
        },
        "timestamp": "2024-06-06T17:02:45.844611"
    },
    {
        "name": "lRYVEyXtsV",
        "address": "sEtszgCUCcnFUJJ",
        "service": "Service 2",
        "category": "KyOidmsa",
        "location": {
            "latitude": 28.213408939292016,
            "longitude": 110.2130010586777
        },
        "timestamp": "2024-06-06T17:02:45.844614"
    },
    {
        "name": "YBQiXIYFlF",
        "address": "sUZZAurCKaClWWJ",
        "service": "Service 2",
        "category": "VcVYEJPY",
        "location": {
            "latitude": 28.22415234143572,
            "longitude": 110.21196790345978
        },
        "timestamp": "2024-06-06T17:02:45.844617"
    },
    {
        "name": "TiXCnTCgyj",
        "address": "jhmBOFfOzBtPAHB",
        "service": "Service 3",
        "category": "GvPpftDx",
        "location": {
            "latitude": 28.214913988314564,
            "longitude": 110.21353949156463
        },
        "timestamp": "2024-06-06T17:02:45.844620"
    },
    {
        "name": "ZYPyRzDehe",
        "address": "heBhwikrrwqsKtg",
        "service": "Service 3",
        "category": "pvhqrRES",
        "location": {
            "latitude": 28.217024597044468,
            "longitude": 110.21093536972643
        },
        "timestamp": "2024-06-06T17:02:45.844623"
    },
    {
        "name": "RuVeDgOdoW",
        "address": "aeYFhgqeDpoaxbJ",
        "service": "Service 1",
        "category": "TdeJCHsf",
        "location": {
            "latitude": 28.21766708611736,
            "longitude": 110.20004161858327
        },
        "timestamp": "2024-06-06T17:02:45.844627"
    },
    {
        "name": "qGKDYIyURh",
        "address": "ElRuGgHIFJVwISj",
        "service": "Service 2",
        "category": "jUpBNVZu",
        "location": {
            "latitude": 28.21284088049003,
            "longitude": 110.21369186821089
        },
        "timestamp": "2024-06-06T17:02:45.844630"
    },
    {
        "name": "bZDxmCdGwT",
        "address": "UHoiuwWqnLYSciq",
        "service": "Service 3",
        "category": "UbhMmBkd",
        "location": {
            "latitude": 28.221568652686503,
            "longitude": 110.21064791387246
        },
        "timestamp": "2024-06-06T17:02:45.844633"
    },
    {
        "name": "jUzfUaYGpb",
        "address": "oZgkadpfopyKJDh",
        "service": "Service 3",
        "category": "vQUDeYtE",
        "location": {
            "latitude": 28.209810875697777,
            "longitude": 110.20986680519604
        },
        "timestamp": "2024-06-06T17:02:45.844636"
    },
    {
        "name": "DWMvBrNhMs",
        "address": "rGzIdBRHeTWGriu",
        "service": "Service 1",
        "category": "KgIGicMK",
        "location": {
            "latitude": 28.222909198410917,
            "longitude": 110.2060914251495
        },
        "timestamp": "2024-06-06T17:02:45.844639"
    },
    {
        "name": "wpLYAirbUU",
        "address": "sOSJNlVDZoVerzv",
        "service": "Service 2",
        "category": "yfKQFhDb",
        "location": {
            "latitude": 28.211154661261624,
            "longitude": 110.20821540726139
        },
        "timestamp": "2024-06-06T17:02:45.844642"
    },
    {
        "name": "hwOXSlalym",
        "address": "MxaFVxlHWaksxpN",
        "service": "Service 1",
        "category": "yWrnHndi",
        "location": {
            "latitude": 28.215396226666126,
            "longitude": 110.20046267827283
        },
        "timestamp": "2024-06-06T17:02:45.844645"
    },
    {
        "name": "SIzBTTWzKA",
        "address": "feGjoZvoswTPJpk",
        "service": "Service 3",
        "category": "PtLdqZpK",
        "location": {
            "latitude": 28.209855886122146,
            "longitude": 110.20550154549902
        },
        "timestamp": "2024-06-06T17:02:45.844648"
    },
    {
        "name": "EdAUkUoZkH",
        "address": "iphSBhsNqqvlktV",
        "service": "Service 1",
        "category": "ckWHLkjP",
        "location": {
            "latitude": 28.224210438170694,
            "longitude": 110.20381066497882
        },
        "timestamp": "2024-06-06T17:02:45.844650"
    },
    {
        "name": "QgMTCgNmHA",
        "address": "FpnuUHryMcbarhw",
        "service": "Service 1",
        "category": "gBIxbTdq",
        "location": {
            "latitude": 28.22424568098759,
            "longitude": 110.21530781641556
        },
        "timestamp": "2024-06-06T17:02:45.844654"
    },
    {
        "name": "ulahbSPeXr",
        "address": "lHHOzxdIDdUplns",
        "service": "Service 3",
        "category": "sIJjYwlc",
        "location": {
            "latitude": 28.21870569009457,
            "longitude": 110.20580949998535
        },
        "timestamp": "2024-06-06T17:02:45.844658"
    },
    {
        "name": "jwzJTjPljS",
        "address": "YBnvWiHiFQakSii",
        "service": "Service 1",
        "category": "muTSfpyI",
        "location": {
            "latitude": 28.21389149856332,
            "longitude": 110.20612607871905
        },
        "timestamp": "2024-06-06T17:02:45.844661"
    },
    {
        "name": "JAvrYEIhpk",
        "address": "BbabEiuIfobenBl",
        "service": "Service 3",
        "category": "rpYLaWSk",
        "location": {
            "latitude": 28.21980536996503,
            "longitude": 110.20894722975112
        },
        "timestamp": "2024-06-06T17:02:45.844664"
    },
    {
        "name": "WnIsmSrBbI",
        "address": "hqIhcNoSYDbLaOV",
        "service": "Service 2",
        "category": "gMAKMnZc",
        "location": {
            "latitude": 28.218196343246934,
            "longitude": 110.21042261173288
        },
        "timestamp": "2024-06-06T17:02:45.844667"
    },
    {
        "name": "cmPKGBcMFq",
        "address": "sbJdujXvfaacdqV",
        "service": "Service 3",
        "category": "nNTCgaVE",
        "location": {
            "latitude": 28.221265495360658,
            "longitude": 110.20830058698591
        },
        "timestamp": "2024-06-06T17:02:45.844670"
    },
    {
        "name": "gjbNdlYKPX",
        "address": "MUnzzCsavrrezok",
        "service": "Service 2",
        "category": "AYUSmtiR",
        "location": {
            "latitude": 28.22032185998017,
            "longitude": 110.21167252731044
        },
        "timestamp": "2024-06-06T17:02:45.844673"
    },
    {
        "name": "gisXgjrrMR",
        "address": "wtHrTUPgHJxXubJ",
        "service": "Service 3",
        "category": "WAnQCOiQ",
        "location": {
            "latitude": 28.209270501901127,
            "longitude": 110.2085170318614
        },
        "timestamp": "2024-06-06T17:02:45.844676"
    },
    {
        "name": "bbelJDtkmR",
        "address": "hVAFeFbhzOKtjKj",
        "service": "Service 3",
        "category": "ZrFDXkpv",
        "location": {
            "latitude": 28.224146824142966,
            "longitude": 110.19959973531454
        },
        "timestamp": "2024-06-06T17:02:45.844679"
    },
    {
        "name": "NMgQwIHDyK",
        "address": "zcytvecqwhntVwj",
        "service": "Service 2",
        "category": "pCXflTpv",
        "location": {
            "latitude": 28.211817692990437,
            "longitude": 110.21314801721
        },
        "timestamp": "2024-06-06T17:02:45.844682"
    },
    {
        "name": "ITKRQWaJVX",
        "address": "SztmfexbmPEBdsv",
        "service": "Service 1",
        "category": "ZgiEuBMu",
        "location": {
            "latitude": 28.220304489786532,
            "longitude": 110.21408933501753
        },
        "timestamp": "2024-06-06T17:02:45.844685"
    },
    {
        "name": "jJQTnwezpy",
        "address": "KFuiuWwZKRXLoya",
        "service": "Service 2",
        "category": "TVXgkDii",
        "location": {
            "latitude": 28.20932241963348,
            "longitude": 110.2036136450424
        },
        "timestamp": "2024-06-06T17:02:45.844688"
    },
    {
        "name": "OCqemevwpE",
        "address": "kncDzlUdGQigtsg",
        "service": "Service 2",
        "category": "PDftIamr",
        "location": {
            "latitude": 28.2234243783638,
            "longitude": 110.21349476023204
        },
        "timestamp": "2024-06-06T17:02:45.844691"
    },
    {
        "name": "WyDBFxNzDZ",
        "address": "HzCDRuRuxLIxjPQ",
        "service": "Service 2",
        "category": "empjiizo",
        "location": {
            "latitude": 28.20920097228111,
            "longitude": 110.21306821922286
        },
        "timestamp": "2024-06-06T17:02:45.844694"
    },
    {
        "name": "KIPcdDKakA",
        "address": "iCMnrgtlNahZsvF",
        "service": "Service 3",
        "category": "zAXLRtvP",
        "location": {
            "latitude": 28.211646334124353,
            "longitude": 110.20621448430636
        },
        "timestamp": "2024-06-06T17:02:45.844697"
    },
    {
        "name": "ucxkjuPHzV",
        "address": "iSuHXMdQtsOdiQd",
        "service": "Service 2",
        "category": "GDfmpwKm",
        "location": {
            "latitude": 28.20911988716832,
            "longitude": 110.20974760090049
        },
        "timestamp": "2024-06-06T17:02:45.844700"
    },
    {
        "name": "RcZNOrUhxW",
        "address": "oeKYjumodbNinRN",
        "service": "Service 1",
        "category": "PMOpxYEw",
        "location": {
            "latitude": 28.208094259089037,
            "longitude": 110.19894560648905
        },
        "timestamp": "2024-06-06T17:02:45.844703"
    },
    {
        "name": "fTZemkHyUf",
        "address": "wHKysUojUurUOvJ",
        "service": "Service 1",
        "category": "gmCCDFlv",
        "location": {
            "latitude": 28.218600538489206,
            "longitude": 110.20279499859731
        },
        "timestamp": "2024-06-06T17:02:45.844706"
    },
    {
        "name": "OAmrAfklnI",
        "address": "ASYfNuqhmvYAWPk",
        "service": "Service 3",
        "category": "tbQsuvXd",
        "location": {
            "latitude": 28.220807562571938,
            "longitude": 110.21248722380038
        },
        "timestamp": "2024-06-06T17:02:45.844711"
    },
    {
        "name": "aYSFlLALUj",
        "address": "zomOPkajaDMyqkd",
        "service": "Service 1",
        "category": "sDWRojbC",
        "location": {
            "latitude": 28.221332806061536,
            "longitude": 110.21235408251664
        },
        "timestamp": "2024-06-06T17:02:45.844714"
    },
    {
        "name": "IBBjKqigXu",
        "address": "STdOZZWyWTqRNFt",
        "service": "Service 1",
        "category": "LuNvvzuN",
        "location": {
            "latitude": 28.209690852589276,
            "longitude": 110.20653394101393
        },
        "timestamp": "2024-06-06T17:02:45.844717"
    },
    {
        "name": "NrnOwaiBGP",
        "address": "sdhOTOohFajGbMQ",
        "service": "Service 1",
        "category": "xNjYMnxc",
        "location": {
            "latitude": 28.215181363698616,
            "longitude": 110.21429722457866
        },
        "timestamp": "2024-06-06T17:02:45.844720"
    },
    {
        "name": "hntFeHUaqE",
        "address": "NIfEwpxbduyDtwy",
        "service": "Service 3",
        "category": "ritkNQEg",
        "location": {
            "latitude": 28.21766554283291,
            "longitude": 110.20770780168563
        },
        "timestamp": "2024-06-06T17:02:45.844723"
    },
    {
        "name": "trIuLOynpP",
        "address": "XNxYUHxgnSrmMPN",
        "service": "Service 1",
        "category": "meGUTWKu",
        "location": {
            "latitude": 28.21927080667935,
            "longitude": 110.19868314387946
        },
        "timestamp": "2024-06-06T17:02:45.844725"
    },
    {
        "name": "SiZUljMQUY",
        "address": "FfgBOktrcKyZERE",
        "service": "Service 2",
        "category": "GwGQVgWJ",
        "location": {
            "latitude": 28.216075454204532,
            "longitude": 110.20160417815387
        },
        "timestamp": "2024-06-06T17:02:45.844728"
    },
    {
        "name": "fvFZSHuedN",
        "address": "lZIsOfbaOTniqLk",
        "service": "Service 3",
        "category": "xzobzLvV",
        "location": {
            "latitude": 28.214488760464192,
            "longitude": 110.20331069484985
        },
        "timestamp": "2024-06-06T17:02:45.844731"
    },
    {
        "name": "mfBbLlFoIz",
        "address": "KWMfjZWfyvUggWr",
        "service": "Service 1",
        "category": "tQBmhJCJ",
        "location": {
            "latitude": 28.21154826439769,
            "longitude": 110.20477442421647
        },
        "timestamp": "2024-06-06T17:02:45.844735"
    },
    {
        "name": "tVKrgbYlci",
        "address": "tTVPoixxRfSgsPP",
        "service": "Service 2",
        "category": "QrsvWRxf",
        "location": {
            "latitude": 28.21287038794959,
            "longitude": 110.19821133861412
        },
        "timestamp": "2024-06-06T17:02:45.844739"
    },
    {
        "name": "gZzgBapDrN",
        "address": "chjfsqQYRWEniSS",
        "service": "Service 3",
        "category": "QHgMElqs",
        "location": {
            "latitude": 28.2094992174571,
            "longitude": 110.203015176467
        },
        "timestamp": "2024-06-06T17:02:45.844742"
    },
    {
        "name": "YNYyEmOnmx",
        "address": "eOSFzQJUWrNGRWb",
        "service": "Service 3",
        "category": "txIboPBb",
        "location": {
            "latitude": 28.210452026581375,
            "longitude": 110.2120321794596
        },
        "timestamp": "2024-06-06T17:02:45.844745"
    },
    {
        "name": "OXwYAcGIxX",
        "address": "qqTLnstEiqKZEvd",
        "service": "Service 1",
        "category": "QlQmgHdF",
        "location": {
            "latitude": 28.22277051370788,
            "longitude": 110.2091519583589
        },
        "timestamp": "2024-06-06T17:02:45.844748"
    },
    {
        "name": "LRdkdodXLP",
        "address": "HoeeZfRtDIlRSfA",
        "service": "Service 1",
        "category": "sCzEJOzq",
        "location": {
            "latitude": 28.210084162858198,
            "longitude": 110.20096774671615
        },
        "timestamp": "2024-06-06T17:02:45.844751"
    },
    {
        "name": "hCPBXBpLrH",
        "address": "SbNjKUEBuysEgjb",
        "service": "Service 1",
        "category": "OeXbZRhU",
        "location": {
            "latitude": 28.21888736059274,
            "longitude": 110.19797931848575
        },
        "timestamp": "2024-06-06T17:02:45.844754"
    },
    {
        "name": "qQjQEiKcuB",
        "address": "YVvtUNxQwqRgJWC",
        "service": "Service 3",
        "category": "lQUKTcAh",
        "location": {
            "latitude": 28.21597765483275,
            "longitude": 110.21031820502515
        },
        "timestamp": "2024-06-06T17:02:45.844757"
    },
    {
        "name": "TlQONXtVnA",
        "address": "cXFZZTnRoAkeZZJ",
        "service": "Service 1",
        "category": "ZzrYJlKL",
        "location": {
            "latitude": 28.21358969279502,
            "longitude": 110.21196292255556
        },
        "timestamp": "2024-06-06T17:02:45.844760"
    },
    {
        "name": "DNgDocJrbF",
        "address": "ISzuDxCOVVfEvqw",
        "service": "Service 3",
        "category": "uGYMiDyG",
        "location": {
            "latitude": 28.208819071092496,
            "longitude": 110.21119485210625
        },
        "timestamp": "2024-06-06T17:02:45.844763"
    },
    {
        "name": "GtkMepDPgf",
        "address": "ZOZHrXpVasFMfhZ",
        "service": "Service 1",
        "category": "QiqlyYAo",
        "location": {
            "latitude": 28.22286224121524,
            "longitude": 110.20260933964097
        },
        "timestamp": "2024-06-06T17:02:45.844766"
    },
    {
        "name": "KGVfmxGLzd",
        "address": "ANIZAIzljmJgmcO",
        "service": "Service 1",
        "category": "fhachkSu",
        "location": {
            "latitude": 28.214757223013713,
            "longitude": 110.2029393746037
        },
        "timestamp": "2024-06-06T17:02:45.844769"
    },
    {
        "name": "tQGRIiQhzy",
        "address": "MiJvkrERFkfDvcG",
        "service": "Service 1",
        "category": "UYWenVTG",
        "location": {
            "latitude": 28.21452972073174,
            "longitude": 110.20991295759259
        },
        "timestamp": "2024-06-06T17:02:45.844772"
    },
    {
        "name": "eKxwPgIqWt",
        "address": "JUxPDWzMiHoVhoM",
        "service": "Service 1",
        "category": "ZYPdVELd",
        "location": {
            "latitude": 28.2178271429052,
            "longitude": 110.2135399759179
        },
        "timestamp": "2024-06-06T17:02:45.844775"
    },
    {
        "name": "uhngygUTCq",
        "address": "OKEkYxRXVgyQKWr",
        "service": "Service 2",
        "category": "OQuMkvcQ",
        "location": {
            "latitude": 28.210582436242678,
            "longitude": 110.202413019352
        },
        "timestamp": "2024-06-06T17:02:45.844778"
    },
    {
        "name": "SrVwwJSSVO",
        "address": "KzPyGVIPmlehOMQ",
        "service": "Service 1",
        "category": "bCNQgZrV",
        "location": {
            "latitude": 28.21029439033774,
            "longitude": 110.19817347960723
        },
        "timestamp": "2024-06-06T17:02:45.844781"
    },
    {
        "name": "gYDxzKPDYD",
        "address": "EeZJGyCUaarrJvW",
        "service": "Service 2",
        "category": "WtmyNsOp",
        "location": {
            "latitude": 28.209893566926084,
            "longitude": 110.20968563764765
        },
        "timestamp": "2024-06-06T17:02:45.844784"
    },
    {
        "name": "oUKEFrmNIn",
        "address": "fpgUWYcLxboJsYE",
        "service": "Service 1",
        "category": "eEkmIFca",
        "location": {
            "latitude": 28.209167198268425,
            "longitude": 110.21367645928845
        },
        "timestamp": "2024-06-06T17:02:45.844788"
    },
    {
        "name": "ClwqeDiBdr",
        "address": "njUZicdYCClXNfj",
        "service": "Service 3",
        "category": "lnzqPeGY",
        "location": {
            "latitude": 28.220048590604133,
            "longitude": 110.2073208334018
        },
        "timestamp": "2024-06-06T17:02:45.844791"
    },
    {
        "name": "SnAJLeGsSt",
        "address": "QDJGLhRBnNvJfDy",
        "service": "Service 3",
        "category": "PZGNmoNc",
        "location": {
            "latitude": 28.210866369002666,
            "longitude": 110.19956872921664
        },
        "timestamp": "2024-06-06T17:02:45.844793"
    },
    {
        "name": "HYumTJrJbp",
        "address": "WBTpozRpEMkeLHR",
        "service": "Service 2",
        "category": "vqFuAQdg",
        "location": {
            "latitude": 28.217855871999813,
            "longitude": 110.20383496228033
        },
        "timestamp": "2024-06-06T17:02:45.844796"
    },
    {
        "name": "AvNjIFjFSy",
        "address": "uqwrHaJekESZVVo",
        "service": "Service 2",
        "category": "boZWSjkK",
        "location": {
            "latitude": 28.21812517935001,
            "longitude": 110.21510078276361
        },
        "timestamp": "2024-06-06T17:02:45.844799"
    },
    {
        "name": "zzuHMGFsUI",
        "address": "EceCkVAnAhmenmI",
        "service": "Service 2",
        "category": "uhWCDDRd",
        "location": {
            "latitude": 28.209976868334493,
            "longitude": 110.21191960195578
        },
        "timestamp": "2024-06-06T17:02:45.844802"
    },
    {
        "name": "feuYZoLFTs",
        "address": "fEpLkutWHOLOaFP",
        "service": "Service 1",
        "category": "PbBsUKLc",
        "location": {
            "latitude": 28.221362317348127,
            "longitude": 110.21026302902825
        },
        "timestamp": "2024-06-06T17:02:45.844805"
    },
    {
        "name": "XONWoswlCu",
        "address": "XvQjqOGQSiEyvnA",
        "service": "Service 1",
        "category": "yHtDxnEC",
        "location": {
            "latitude": 28.212445726548065,
            "longitude": 110.20768008409541
        },
        "timestamp": "2024-06-06T17:02:45.844808"
    },
    {
        "name": "xzkNumMkOF",
        "address": "TZQtalhMrjCexGo",
        "service": "Service 3",
        "category": "ROUUKtpQ",
        "location": {
            "latitude": 28.223263537042257,
            "longitude": 110.1999936081258
        },
        "timestamp": "2024-06-06T17:02:45.844811"
    },
    {
        "name": "lxQtcdKZUi",
        "address": "QhXWjDMXIIoPmjG",
        "service": "Service 2",
        "category": "twyXWGnu",
        "location": {
            "latitude": 28.208502218115196,
            "longitude": 110.19942178829622
        },
        "timestamp": "2024-06-06T17:02:45.844818"
    },
    {
        "name": "LtUWREELRg",
        "address": "vtaKzTeSbFrWEjO",
        "service": "Service 3",
        "category": "nXCuvOBd",
        "location": {
            "latitude": 28.209939550978174,
            "longitude": 110.20550759409026
        },
        "timestamp": "2024-06-06T17:02:45.844821"
    },
    {
        "name": "FfYSIFESzR",
        "address": "QdVACKUdrzEuYZm",
        "service": "Service 1",
        "category": "iUKuEfCZ",
        "location": {
            "latitude": 28.209885917037045,
            "longitude": 110.20118772544434
        },
        "timestamp": "2024-06-06T17:02:45.844824"
    },
    {
        "name": "UXFniUaUym",
        "address": "HHAKelMRPwRoERz",
        "service": "Service 3",
        "category": "nAnhWlTU",
        "location": {
            "latitude": 28.20907754943908,
            "longitude": 110.20018985783966
        },
        "timestamp": "2024-06-06T17:02:45.844827"
    },
    {
        "name": "nLeEcabQDD",
        "address": "cKIYgrYzVBFnbht",
        "service": "Service 3",
        "category": "BaRDUFoe",
        "location": {
            "latitude": 28.21328664611998,
            "longitude": 110.211181544534
        },
        "timestamp": "2024-06-06T17:02:45.844830"
    },
    {
        "name": "eNqhCybfvS",
        "address": "lGNajOHFyFxkirQ",
        "service": "Service 3",
        "category": "UFbjlXfm",
        "location": {
            "latitude": 28.208045832963958,
            "longitude": 110.21446954890952
        },
        "timestamp": "2024-06-06T17:02:45.844833"
    },
    {
        "name": "jorxzIIlHt",
        "address": "CGVbhyGRlEoftja",
        "service": "Service 3",
        "category": "SxowVopX",
        "location": {
            "latitude": 28.217522899070037,
            "longitude": 110.20254509565997
        },
        "timestamp": "2024-06-06T17:02:45.844836"
    },
    {
        "name": "kIPEbGOtNv",
        "address": "DnKOYMMUpSVTWCR",
        "service": "Service 1",
        "category": "MLRARUVu",
        "location": {
            "latitude": 28.21106561419211,
            "longitude": 110.20452364683842
        },
        "timestamp": "2024-06-06T17:02:45.844839"
    },
    {
        "name": "qJXEHyluLi",
        "address": "oGMhZxwTZspDZHC",
        "service": "Service 1",
        "category": "iNskcteI",
        "location": {
            "latitude": 28.218398870275568,
            "longitude": 110.19940136689382
        },
        "timestamp": "2024-06-06T17:02:45.844841"
    },
    {
        "name": "dwbDzZAgAn",
        "address": "sjgXhrIpVVHiSCn",
        "service": "Service 1",
        "category": "xiIMuJDF",
        "location": {
            "latitude": 28.223647935086717,
            "longitude": 110.20476427727719
        },
        "timestamp": "2024-06-06T17:02:45.844845"
    },
    {
        "name": "gEKLscpSGQ",
        "address": "efbObjarQevNazd",
        "service": "Service 2",
        "category": "jczHwDZe",
        "location": {
            "latitude": 28.217703863475464,
            "longitude": 110.20697302991555
        },
        "timestamp": "2024-06-06T17:02:45.844848"
    },
    {
        "name": "vszYxqZFwl",
        "address": "kcVoATlfOCNBgND",
        "service": "Service 3",
        "category": "fDnssdmd",
        "location": {
            "latitude": 28.220995994646593,
            "longitude": 110.21451803591495
        },
        "timestamp": "2024-06-06T17:02:45.844851"
    },
    {
        "name": "uOVAkxomSB",
        "address": "NyfdsSEoJpqWnOg",
        "service": "Service 1",
        "category": "ThNPykhu",
        "location": {
            "latitude": 28.213753427987374,
            "longitude": 110.19964632531126
        },
        "timestamp": "2024-06-06T17:02:45.844854"
    },
    {
        "name": "RXWyVkiRIW",
        "address": "KpwnXroIzXCrBjw",
        "service": "Service 2",
        "category": "fGHsajDA",
        "location": {
            "latitude": 28.21420848402186,
            "longitude": 110.20462855348568
        },
        "timestamp": "2024-06-06T17:02:45.844856"
    },
    {
        "name": "vQANTgUHao",
        "address": "htWQCEsnJhAHBGX",
        "service": "Service 2",
        "category": "cwMJcyYH",
        "location": {
            "latitude": 28.212057557658703,
            "longitude": 110.20931972360867
        },
        "timestamp": "2024-06-06T17:02:45.844859"
    },
    {
        "name": "nnFAWstkkB",
        "address": "NVcqxHtHOoqhxPn",
        "service": "Service 2",
        "category": "hWFtiCDV",
        "location": {
            "latitude": 28.208482335670972,
            "longitude": 110.21472554431023
        },
        "timestamp": "2024-06-06T17:02:45.844862"
    },
    {
        "name": "PbGmZtakrS",
        "address": "dQrACBzWcoGxYOV",
        "service": "Service 2",
        "category": "TVDvRDke",
        "location": {
            "latitude": 28.215524441723815,
            "longitude": 110.21464034178673
        },
        "timestamp": "2024-06-06T17:02:45.844865"
    },
    {
        "name": "JWbHhlAujo",
        "address": "WldksTwVHXmXwTg",
        "service": "Service 2",
        "category": "zwarLaAJ",
        "location": {
            "latitude": 28.21908470896634,
            "longitude": 110.21019443002895
        },
        "timestamp": "2024-06-06T17:02:45.844869"
    },
    {
        "name": "oHHnWKDcDw",
        "address": "pUBnpZKorbOzzuI",
        "service": "Service 1",
        "category": "MJJRSgXp",
        "location": {
            "latitude": 28.20808888086692,
            "longitude": 110.19974509660753
        },
        "timestamp": "2024-06-06T17:02:45.844872"
    },
    {
        "name": "uPwBwhsiJq",
        "address": "nHcQbmWitSbuFnB",
        "service": "Service 2",
        "category": "mFoJXajv",
        "location": {
            "latitude": 28.21385135641273,
            "longitude": 110.21168143312359
        },
        "timestamp": "2024-06-06T17:02:45.844875"
    },
    {
        "name": "lnRVmhJGZw",
        "address": "wklyUqMCzOPfAQQ",
        "service": "Service 3",
        "category": "hwpIannp",
        "location": {
            "latitude": 28.221483072063627,
            "longitude": 110.21526213798293
        },
        "timestamp": "2024-06-06T17:02:45.844877"
    },
    {
        "name": "wQZCDiimQp",
        "address": "ogEFRkUFUiuUrHZ",
        "service": "Service 2",
        "category": "buMuIUgi",
        "location": {
            "latitude": 28.213142855565962,
            "longitude": 110.21241083716632
        },
        "timestamp": "2024-06-06T17:02:45.844880"
    },
    {
        "name": "BvZziOANHS",
        "address": "qskcLkGNcCOXfiz",
        "service": "Service 1",
        "category": "odmQLGoh",
        "location": {
            "latitude": 28.212758752015954,
            "longitude": 110.19865521507063
        },
        "timestamp": "2024-06-06T17:02:45.844883"
    },
    {
        "name": "DXcMPVNpFn",
        "address": "gDSSZJNHiRqWzRP",
        "service": "Service 2",
        "category": "tJhgYlAK",
        "location": {
            "latitude": 28.213928976158584,
            "longitude": 110.20129908083781
        },
        "timestamp": "2024-06-06T17:02:45.844887"
    },
    {
        "name": "TdzbKbeutW",
        "address": "NGvJMCYKyAnLmPG",
        "service": "Service 3",
        "category": "sLfKeiTn",
        "location": {
            "latitude": 28.221429219739136,
            "longitude": 110.21173031630286
        },
        "timestamp": "2024-06-06T17:02:45.844889"
    },
    {
        "name": "cpnWUQFxrs",
        "address": "TmNZUFPXloXIAOh",
        "service": "Service 3",
        "category": "skRfjJPP",
        "location": {
            "latitude": 28.20956919816213,
            "longitude": 110.20606970963502
        },
        "timestamp": "2024-06-06T17:02:45.844892"
    },
    {
        "name": "jPYtTjxqtO",
        "address": "acNDvjbaVENrVLh",
        "service": "Service 1",
        "category": "WdYcosXW",
        "location": {
            "latitude": 28.2103155092327,
            "longitude": 110.19798997722384
        },
        "timestamp": "2024-06-06T17:02:45.844896"
    },
    {
        "name": "mgFWsaXmBd",
        "address": "dYgbtlvRQiwhLdm",
        "service": "Service 1",
        "category": "SwhmgyrT",
        "location": {
            "latitude": 28.21685512053101,
            "longitude": 110.21064409148819
        },
        "timestamp": "2024-06-06T17:02:45.844899"
    },
    {
        "name": "QWTdVqSfMy",
        "address": "mTjkZTFTBvOGEaB",
        "service": "Service 2",
        "category": "VBercwzb",
        "location": {
            "latitude": 28.212331727579947,
            "longitude": 110.20238707952008
        },
        "timestamp": "2024-06-06T17:02:45.844902"
    },
    {
        "name": "dQeiabNsAT",
        "address": "oOHWqMpuoZoCBIs",
        "service": "Service 2",
        "category": "YWcCikBl",
        "location": {
            "latitude": 28.21676778375714,
            "longitude": 110.20519931990431
        },
        "timestamp": "2024-06-06T17:02:45.844905"
    },
    {
        "name": "rwZCATzQvF",
        "address": "SZQJdLjhVpLwolK",
        "service": "Service 3",
        "category": "CPCvCXpk",
        "location": {
            "latitude": 28.22163975086553,
            "longitude": 110.20385571486452
        },
        "timestamp": "2024-06-06T17:02:45.844908"
    },
    {
        "name": "lknuXfMWTf",
        "address": "gGpanoGeBCVMHNA",
        "service": "Service 1",
        "category": "sLBXDNxU",
        "location": {
            "latitude": 28.208960452886583,
            "longitude": 110.20170878353439
        },
        "timestamp": "2024-06-06T17:02:45.844911"
    },
    {
        "name": "APGbvfMBuh",
        "address": "ykeWKRxxWVjUbfj",
        "service": "Service 2",
        "category": "SYKgbsef",
        "location": {
            "latitude": 28.216659251211407,
            "longitude": 110.21500160179228
        },
        "timestamp": "2024-06-06T17:02:45.844914"
    },
    {
        "name": "VzhCyLpevK",
        "address": "IdMpytNnIPSjxbq",
        "service": "Service 3",
        "category": "JqkDOLPT",
        "location": {
            "latitude": 28.214658392035208,
            "longitude": 110.20878147147731
        },
        "timestamp": "2024-06-06T17:02:45.844917"
    },
    {
        "name": "WOjmfPPklb",
        "address": "CJhqMtPndfulgwM",
        "service": "Service 3",
        "category": "GCjqKGAM",
        "location": {
            "latitude": 28.21646998073953,
            "longitude": 110.20489478574207
        },
        "timestamp": "2024-06-06T17:02:45.844919"
    },
    {
        "name": "NWlOqsApMN",
        "address": "PfPvxIMqZpgwcvi",
        "service": "Service 2",
        "category": "YbiiJOAo",
        "location": {
            "latitude": 28.222860052380966,
            "longitude": 110.21257168075229
        },
        "timestamp": "2024-06-06T17:02:45.844923"
    },
    {
        "name": "nfOgZflKwv",
        "address": "kBnrxNIEEehLMdg",
        "service": "Service 2",
        "category": "Oclwdflt",
        "location": {
            "latitude": 28.21801696770651,
            "longitude": 110.20562168923938
        },
        "timestamp": "2024-06-06T17:02:45.844926"
    },
    {
        "name": "glmwGPFvLM",
        "address": "sbkyKwRmnJXacpz",
        "service": "Service 3",
        "category": "tScyNfci",
        "location": {
            "latitude": 28.215504524874515,
            "longitude": 110.2116561978853
        },
        "timestamp": "2024-06-06T17:02:45.844929"
    },
    {
        "name": "JcpVhzRHDk",
        "address": "bJKvPPxxNpjPyzF",
        "service": "Service 3",
        "category": "mebBTVof",
        "location": {
            "latitude": 28.2127118708552,
            "longitude": 110.2019720759536
        },
        "timestamp": "2024-06-06T17:02:45.844932"
    },
    {
        "name": "dlJRYHqDac",
        "address": "TbMnhwIsvwDsOQn",
        "service": "Service 1",
        "category": "vUFUuhbt",
        "location": {
            "latitude": 28.222406099131955,
            "longitude": 110.20652121736859
        },
        "timestamp": "2024-06-06T17:02:45.844935"
    },
    {
        "name": "scfiCgBPRJ",
        "address": "GKQQaszmAHCkwXh",
        "service": "Service 1",
        "category": "UUGZXUco",
        "location": {
            "latitude": 28.217693779494915,
            "longitude": 110.21243347663835
        },
        "timestamp": "2024-06-06T17:02:45.844939"
    },
    {
        "name": "oVBLfhaRFG",
        "address": "TxRydhMxczdjRFC",
        "service": "Service 1",
        "category": "EDRcbiLL",
        "location": {
            "latitude": 28.220362045601238,
            "longitude": 110.19875478781361
        },
        "timestamp": "2024-06-06T17:02:45.844942"
    },
    {
        "name": "UnXWjcpTin",
        "address": "QTNDJDEVEWwvmFM",
        "service": "Service 2",
        "category": "UOqHSbrS",
        "location": {
            "latitude": 28.21628803359823,
            "longitude": 110.2150317515347
        },
        "timestamp": "2024-06-06T17:02:45.844945"
    },
    {
        "name": "RcFAvEplaJ",
        "address": "wCEyTJszbqXlwyf",
        "service": "Service 2",
        "category": "eRfEXDmO",
        "location": {
            "latitude": 28.2226274454416,
            "longitude": 110.19829407479894
        },
        "timestamp": "2024-06-06T17:02:45.844948"
    },
    {
        "name": "CxsFPowKZR",
        "address": "FoVsbIgqCbCayby",
        "service": "Service 2",
        "category": "FYSuvkqx",
        "location": {
            "latitude": 28.22161835461745,
            "longitude": 110.19800730845485
        },
        "timestamp": "2024-06-06T17:02:45.844976"
    },
    {
        "name": "NBwNGKQKqJ",
        "address": "biIJxZDtRBLXAjg",
        "service": "Service 1",
        "category": "IrPDhSsX",
        "location": {
            "latitude": 28.211275566086385,
            "longitude": 110.21388844342582
        },
        "timestamp": "2024-06-06T17:02:45.844983"
    },
    {
        "name": "KUhqquotDj",
        "address": "EZQbqYPAzgkyaCS",
        "service": "Service 3",
        "category": "lBjmziSm",
        "location": {
            "latitude": 28.211490048154978,
            "longitude": 110.20738823466145
        },
        "timestamp": "2024-06-06T17:02:45.844987"
    },
    {
        "name": "NWRFAhYtNC",
        "address": "zwuNoERaGfsViOi",
        "service": "Service 2",
        "category": "QHimfcnh",
        "location": {
            "latitude": 28.212164551957564,
            "longitude": 110.2070710769742
        },
        "timestamp": "2024-06-06T17:02:45.844990"
    },
    {
        "name": "nDrdztpyvb",
        "address": "dmpmjlGrvCoRIEx",
        "service": "Service 2",
        "category": "ItgwfCmf",
        "location": {
            "latitude": 28.220985901656448,
            "longitude": 110.20103392347686
        },
        "timestamp": "2024-06-06T17:02:45.844993"
    },
    {
        "name": "BzDUizZYgp",
        "address": "uwMSKEqoUJlnJWv",
        "service": "Service 1",
        "category": "cScpzcWe",
        "location": {
            "latitude": 28.213334737720782,
            "longitude": 110.2064158201225
        },
        "timestamp": "2024-06-06T17:02:45.844996"
    },
    {
        "name": "RUsKSewYwg",
        "address": "oRFuKqOilBvOASk",
        "service": "Service 1",
        "category": "IRtdaphv",
        "location": {
            "latitude": 28.216495292273194,
            "longitude": 110.20566503131754
        },
        "timestamp": "2024-06-06T17:02:45.844999"
    },
    {
        "name": "cxTAaLXfFM",
        "address": "LgETCOwyKtavVmQ",
        "service": "Service 3",
        "category": "sdPwgRca",
        "location": {
            "latitude": 28.21103646388361,
            "longitude": 110.20007801763559
        },
        "timestamp": "2024-06-06T17:02:45.845004"
    },
    {
        "name": "WVcWzYAcFw",
        "address": "apNvxNyCaYZxqjI",
        "service": "Service 2",
        "category": "ZZqifWlp",
        "location": {
            "latitude": 28.224440275036642,
            "longitude": 110.20578231876226
        },
        "timestamp": "2024-06-06T17:02:45.845008"
    },
    {
        "name": "mnotEdAANF",
        "address": "YsTWgVCPMDrFefZ",
        "service": "Service 3",
        "category": "ygzNlruh",
        "location": {
            "latitude": 28.210470911070523,
            "longitude": 110.21043397434822
        },
        "timestamp": "2024-06-06T17:02:45.845012"
    },
    {
        "name": "DmGqrHVHtl",
        "address": "VXykNznlMiCNoGp",
        "service": "Service 3",
        "category": "QwnYGYgz",
        "location": {
            "latitude": 28.213392947047105,
            "longitude": 110.20775363101187
        },
        "timestamp": "2024-06-06T17:02:45.845015"
    },
    {
        "name": "gpFUODRFcI",
        "address": "pYjIFajqPsmbzWT",
        "service": "Service 2",
        "category": "rpkDmVUy",
        "location": {
            "latitude": 28.21463484373087,
            "longitude": 110.2148438101248
        },
        "timestamp": "2024-06-06T17:02:45.845018"
    },
    {
        "name": "fYTbLJcpVo",
        "address": "MqQbkLlUXFLnWvR",
        "service": "Service 3",
        "category": "ZYKTBYSg",
        "location": {
            "latitude": 28.21337302477498,
            "longitude": 110.19896011412223
        },
        "timestamp": "2024-06-06T17:02:45.845021"
    },
    {
        "name": "BmftSBJERk",
        "address": "jmGTuYuBaNJlpVD",
        "service": "Service 1",
        "category": "WvEcRDVY",
        "location": {
            "latitude": 28.2155771176562,
            "longitude": 110.19864447424494
        },
        "timestamp": "2024-06-06T17:02:45.845024"
    },
    {
        "name": "GRVuWzXkrR",
        "address": "XpZQtFOOWGZvKlh",
        "service": "Service 1",
        "category": "guSNALbQ",
        "location": {
            "latitude": 28.208053148125995,
            "longitude": 110.20358794792422
        },
        "timestamp": "2024-06-06T17:02:45.845027"
    },
    {
        "name": "UjQirpQJCw",
        "address": "uQkhljuSqNfqYjy",
        "service": "Service 2",
        "category": "dmukFqIG",
        "location": {
            "latitude": 28.218143444160827,
            "longitude": 110.20377059302648
        },
        "timestamp": "2024-06-06T17:02:45.845030"
    },
    {
        "name": "SWCZbKCSCA",
        "address": "DQvbyHcFeLOFjKz",
        "service": "Service 1",
        "category": "xpHTWXeS",
        "location": {
            "latitude": 28.21369100996481,
            "longitude": 110.2125820100003
        },
        "timestamp": "2024-06-06T17:02:45.845035"
    },
    {
        "name": "JYEzHHongH",
        "address": "hBIOZlVRAHRUZaq",
        "service": "Service 2",
        "category": "evcIpZHd",
        "location": {
            "latitude": 28.22159572815017,
            "longitude": 110.21483048777567
        },
        "timestamp": "2024-06-06T17:02:45.845038"
    },
    {
        "name": "WgqtrsAhah",
        "address": "rPXhQCWPmfrlFCS",
        "service": "Service 1",
        "category": "IBCJWJDJ",
        "location": {
            "latitude": 28.210539679133202,
            "longitude": 110.19833080557184
        },
        "timestamp": "2024-06-06T17:02:45.845042"
    },
    {
        "name": "HUKpvopxjQ",
        "address": "SwvDweLMjNlMaDj",
        "service": "Service 2",
        "category": "VxLYRDJh",
        "location": {
            "latitude": 28.224023228375863,
            "longitude": 110.19869489293438
        },
        "timestamp": "2024-06-06T17:02:45.845045"
    },
    {
        "name": "eZIdAIRyWs",
        "address": "fTJHBRVJPdQtEKF",
        "service": "Service 2",
        "category": "VzKExFci",
        "location": {
            "latitude": 28.223815179800887,
            "longitude": 110.19923344312402
        },
        "timestamp": "2024-06-06T17:02:45.845048"
    },
    {
        "name": "VftGUNmRDw",
        "address": "eXGusXlVRgzUwrB",
        "service": "Service 3",
        "category": "IlaSgmEU",
        "location": {
            "latitude": 28.209462231570036,
            "longitude": 110.21070056369541
        },
        "timestamp": "2024-06-06T17:02:45.845051"
    },
    {
        "name": "YGrzWqvKNN",
        "address": "bqFdhvmjXfzuDaU",
        "service": "Service 1",
        "category": "byTJMBRs",
        "location": {
            "latitude": 28.20906583196959,
            "longitude": 110.21323760090549
        },
        "timestamp": "2024-06-06T17:02:45.845054"
    },
    {
        "name": "yTlkzkxKRD",
        "address": "fDLfMWnNCQLjdtz",
        "service": "Service 1",
        "category": "rsQZsrhu",
        "location": {
            "latitude": 28.217267213578584,
            "longitude": 110.202192306402
        },
        "timestamp": "2024-06-06T17:02:45.845057"
    },
    {
        "name": "jQvMXuaDQc",
        "address": "ejixLXyWeTgzFii",
        "service": "Service 1",
        "category": "IgXMbeRe",
        "location": {
            "latitude": 28.216556885338616,
            "longitude": 110.21123923235902
        },
        "timestamp": "2024-06-06T17:02:45.845060"
    },
    {
        "name": "mPQrNghXlJ",
        "address": "ChzvhfQjwwhqCyC",
        "service": "Service 3",
        "category": "fktxTHoQ",
        "location": {
            "latitude": 28.21006005559762,
            "longitude": 110.21400548086521
        },
        "timestamp": "2024-06-06T17:02:45.845063"
    },
    {
        "name": "KVTASEFmRZ",
        "address": "NQtSpNjrDHuhKoO",
        "service": "Service 3",
        "category": "jHSHRGQj",
        "location": {
            "latitude": 28.22226431364406,
            "longitude": 110.20352036133725
        },
        "timestamp": "2024-06-06T17:02:45.845066"
    },
    {
        "name": "wotthYuEFp",
        "address": "TKEjcKWWjGKWFxc",
        "service": "Service 2",
        "category": "VkOCgpnj",
        "location": {
            "latitude": 28.213835894896,
            "longitude": 110.20482862228658
        },
        "timestamp": "2024-06-06T17:02:45.845069"
    },
    {
        "name": "lnvNFIqVGl",
        "address": "nlpSjOulupzzZLi",
        "service": "Service 2",
        "category": "WQhpTbKf",
        "location": {
            "latitude": 28.2201335993078,
            "longitude": 110.2049211933797
        },
        "timestamp": "2024-06-06T17:02:45.845072"
    },
    {
        "name": "llhzfsdiWV",
        "address": "XElwyAIVSkQrLyJ",
        "service": "Service 2",
        "category": "dmffNqZm",
        "location": {
            "latitude": 28.212075474376864,
            "longitude": 110.2126106339806
        },
        "timestamp": "2024-06-06T17:02:45.845075"
    },
    {
        "name": "mwhPGfWHUu",
        "address": "znUinrqAwdzqoSS",
        "service": "Service 3",
        "category": "CIKLIqND",
        "location": {
            "latitude": 28.21339242830332,
            "longitude": 110.19999356517711
        },
        "timestamp": "2024-06-06T17:02:45.845078"
    },
    {
        "name": "OklhjzRaWc",
        "address": "FwqrBafxzTtAXMc",
        "service": "Service 1",
        "category": "TaqBjiSG",
        "location": {
            "latitude": 28.219597721289485,
            "longitude": 110.20950369880163
        },
        "timestamp": "2024-06-06T17:02:45.845081"
    },
    {
        "name": "KUUpseaKwO",
        "address": "IDaeRVuDfIfZsMH",
        "service": "Service 1",
        "category": "SZOEbrbi",
        "location": {
            "latitude": 28.213480279991302,
            "longitude": 110.20504549091953
        },
        "timestamp": "2024-06-06T17:02:45.845084"
    },
    {
        "name": "tJffNQkpSz",
        "address": "lkXvTYrtsyYHAyQ",
        "service": "Service 3",
        "category": "toqqMkKd",
        "location": {
            "latitude": 28.208233068888944,
            "longitude": 110.2136952511822
        },
        "timestamp": "2024-06-06T17:02:45.845087"
    },
    {
        "name": "hSsYuumMOA",
        "address": "qcGjvRTtNbUWcUs",
        "service": "Service 2",
        "category": "NgxovQRV",
        "location": {
            "latitude": 28.214539969990398,
            "longitude": 110.20175549425238
        },
        "timestamp": "2024-06-06T17:02:45.845090"
    },
    {
        "name": "MqAXAtnDWV",
        "address": "ZYuXITJTRlioiGI",
        "service": "Service 1",
        "category": "ncWRZsIM",
        "location": {
            "latitude": 28.215642674093722,
            "longitude": 110.21452189254988
        },
        "timestamp": "2024-06-06T17:02:45.845093"
    },
    {
        "name": "hYYknhrClh",
        "address": "VLPBavlDojTHSUs",
        "service": "Service 1",
        "category": "ITffUXKT",
        "location": {
            "latitude": 28.21820309245189,
            "longitude": 110.20807859399852
        },
        "timestamp": "2024-06-06T17:02:45.845096"
    },
    {
        "name": "IvNjzUjQKb",
        "address": "qnPKHTjngQvWYta",
        "service": "Service 3",
        "category": "iptAcPQz",
        "location": {
            "latitude": 28.21344058888711,
            "longitude": 110.21243935486916
        },
        "timestamp": "2024-06-06T17:02:45.845099"
    },
    {
        "name": "jwGOmgpgwS",
        "address": "ABzaLVFLAhfIanT",
        "service": "Service 1",
        "category": "YCYuDXdl",
        "location": {
            "latitude": 28.216602066387832,
            "longitude": 110.20419703445184
        },
        "timestamp": "2024-06-06T17:02:45.845102"
    },
    {
        "name": "gGHDTidgqF",
        "address": "SZBsRmvJnXzlwIt",
        "service": "Service 3",
        "category": "rudNTCkw",
        "location": {
            "latitude": 28.211354242726813,
            "longitude": 110.2119889682415
        },
        "timestamp": "2024-06-06T17:02:45.845105"
    },
    {
        "name": "FWmZALwqvk",
        "address": "yvRARopkuJNRTLS",
        "service": "Service 2",
        "category": "YJXcXjdZ",
        "location": {
            "latitude": 28.21770598844982,
            "longitude": 110.21471978316376
        },
        "timestamp": "2024-06-06T17:02:45.845108"
    },
    {
        "name": "rzGXxDEZwp",
        "address": "EPvYagWLAGUAjTq",
        "service": "Service 1",
        "category": "XGNbxahG",
        "location": {
            "latitude": 28.22074230288609,
            "longitude": 110.2006828383176
        },
        "timestamp": "2024-06-06T17:02:45.845111"
    },
    {
        "name": "LzIMzEeDce",
        "address": "qmZqNzlVCQRDJHS",
        "service": "Service 3",
        "category": "KNVUqfIW",
        "location": {
            "latitude": 28.210291221165946,
            "longitude": 110.1998541672765
        },
        "timestamp": "2024-06-06T17:02:45.845114"
    },
    {
        "name": "BPDiHdFAlU",
        "address": "pBgvlqwVvmdEYZt",
        "service": "Service 2",
        "category": "jOSplBqr",
        "location": {
            "latitude": 28.218537407408444,
            "longitude": 110.21317465095933
        },
        "timestamp": "2024-06-06T17:02:45.845118"
    },
    {
        "name": "UOZKybIPom",
        "address": "LeICjSBcbpdfBqF",
        "service": "Service 2",
        "category": "UNfyFuCj",
        "location": {
            "latitude": 28.21910722637728,
            "longitude": 110.19884154565348
        },
        "timestamp": "2024-06-06T17:02:45.845121"
    },
    {
        "name": "atfxGadbiN",
        "address": "tZWeoilXSzpKdAp",
        "service": "Service 3",
        "category": "FbwYACxD",
        "location": {
            "latitude": 28.218966316569382,
            "longitude": 110.20254544165178
        },
        "timestamp": "2024-06-06T17:02:45.845124"
    },
    {
        "name": "QDQphqUGVi",
        "address": "hKPrQnXPptLLmWw",
        "service": "Service 2",
        "category": "dcmQsEBK",
        "location": {
            "latitude": 28.21165720981907,
            "longitude": 110.2002819928324
        },
        "timestamp": "2024-06-06T17:02:45.845127"
    },
    {
        "name": "FnroshumBy",
        "address": "jkWtBsASOzoRvXD",
        "service": "Service 3",
        "category": "eJAhkYGn",
        "location": {
            "latitude": 28.208494739431686,
            "longitude": 110.1981645317102
        },
        "timestamp": "2024-06-06T17:02:45.845130"
    },
    {
        "name": "DEocflAyAS",
        "address": "EIXPidMKzbIwiaA",
        "service": "Service 2",
        "category": "ButzPTqu",
        "location": {
            "latitude": 28.212912181026713,
            "longitude": 110.21380751640245
        },
        "timestamp": "2024-06-06T17:02:45.845133"
    },
    {
        "name": "IEvVzzfplA",
        "address": "PIqlNvHDxOOWtUe",
        "service": "Service 2",
        "category": "ERFdVKxs",
        "location": {
            "latitude": 28.21862810806579,
            "longitude": 110.20913624623641
        },
        "timestamp": "2024-06-06T17:02:45.845135"
    },
    {
        "name": "BKaKnEZHVi",
        "address": "AtvZtGqgnAbJhkD",
        "service": "Service 3",
        "category": "XbvFOmxd",
        "location": {
            "latitude": 28.220211211791224,
            "longitude": 110.21258820792457
        },
        "timestamp": "2024-06-06T17:02:45.845138"
    },
    {
        "name": "FqIAjCRjtl",
        "address": "VtDnxPWYONdncBK",
        "service": "Service 2",
        "category": "fowdpAVQ",
        "location": {
            "latitude": 28.208221373128016,
            "longitude": 110.20152628607636
        },
        "timestamp": "2024-06-06T17:02:45.845141"
    },
    {
        "name": "DoIEPUAfTY",
        "address": "BiubeNxUeToMftP",
        "service": "Service 2",
        "category": "pPyTfrxX",
        "location": {
            "latitude": 28.21373448502619,
            "longitude": 110.2149485378978
        },
        "timestamp": "2024-06-06T17:02:45.845145"
    },
    {
        "name": "IYDlvrmSUl",
        "address": "rzvmtmqFSUmMjCU",
        "service": "Service 2",
        "category": "IksQQtBR",
        "location": {
            "latitude": 28.21111911547683,
            "longitude": 110.19845181491402
        },
        "timestamp": "2024-06-06T17:02:45.845148"
    },
    {
        "name": "lAoffmxwsI",
        "address": "UxcRjybWvMIntog",
        "service": "Service 2",
        "category": "jdsfsAMN",
        "location": {
            "latitude": 28.213230054293494,
            "longitude": 110.20726238584831
        },
        "timestamp": "2024-06-06T17:02:45.845151"
    },
    {
        "name": "TBteixkfwf",
        "address": "hTOHHKhNXeRIOdh",
        "service": "Service 1",
        "category": "QDrViDtx",
        "location": {
            "latitude": 28.21621306156164,
            "longitude": 110.1984595456383
        },
        "timestamp": "2024-06-06T17:02:45.845154"
    },
    {
        "name": "xOLiFoCwnR",
        "address": "gSpwgarBRhkexWb",
        "service": "Service 2",
        "category": "fIzCkTdh",
        "location": {
            "latitude": 28.20803343266852,
            "longitude": 110.20679286347126
        },
        "timestamp": "2024-06-06T17:02:45.845157"
    },
    {
        "name": "RrFcEIPIXr",
        "address": "NMwUqOIEIyPzMCm",
        "service": "Service 3",
        "category": "ZWYRylXa",
        "location": {
            "latitude": 28.223827899777973,
            "longitude": 110.2018851928068
        },
        "timestamp": "2024-06-06T17:02:45.845160"
    },
    {
        "name": "ahnPUOCxaq",
        "address": "VcfNUeLceMHIKly",
        "service": "Service 1",
        "category": "vrPXLuRA",
        "location": {
            "latitude": 28.214210916778388,
            "longitude": 110.21460177297759
        },
        "timestamp": "2024-06-06T17:02:45.845164"
    },
    {
        "name": "uLQSPWNSNY",
        "address": "uYbuRezfdweGJoL",
        "service": "Service 2",
        "category": "GKlanQrM",
        "location": {
            "latitude": 28.20994525906541,
            "longitude": 110.20380713861974
        },
        "timestamp": "2024-06-06T17:02:45.845167"
    },
    {
        "name": "XSCVBHuVdc",
        "address": "owXPTaHcPhfqTMD",
        "service": "Service 3",
        "category": "yCnxxiSK",
        "location": {
            "latitude": 28.21177800501789,
            "longitude": 110.20895668233473
        },
        "timestamp": "2024-06-06T17:02:45.845170"
    },
    {
        "name": "VzZmRUFYbq",
        "address": "LlcusOsAQqOjxcz",
        "service": "Service 2",
        "category": "XcuYbvGp",
        "location": {
            "latitude": 28.22446499953259,
            "longitude": 110.20362514455027
        },
        "timestamp": "2024-06-06T17:02:45.845173"
    },
    {
        "name": "nJeYTnIohU",
        "address": "tyFCLbvMJNwsigT",
        "service": "Service 3",
        "category": "apztvmfb",
        "location": {
            "latitude": 28.20967014393114,
            "longitude": 110.21446679682553
        },
        "timestamp": "2024-06-06T17:02:45.845176"
    },
    {
        "name": "bQwDFuOiNa",
        "address": "KkpUeoFvwPYqWzU",
        "service": "Service 2",
        "category": "kKUDbhLz",
        "location": {
            "latitude": 28.210990608169787,
            "longitude": 110.21014723784599
        },
        "timestamp": "2024-06-06T17:02:45.845179"
    },
    {
        "name": "BBUzlcNaav",
        "address": "OgEhNeGCLkwBRHV",
        "service": "Service 1",
        "category": "OfYYWTcU",
        "location": {
            "latitude": 28.215056441495438,
            "longitude": 110.20992119751531
        },
        "timestamp": "2024-06-06T17:02:45.845182"
    },
    {
        "name": "SLLnrGtjel",
        "address": "uPEAdasKRRKUBna",
        "service": "Service 1",
        "category": "EzlepzTN",
        "location": {
            "latitude": 28.217454093207298,
            "longitude": 110.20650211908062
        },
        "timestamp": "2024-06-06T17:02:45.845185"
    },
    {
        "name": "zrvWVZHfja",
        "address": "pBfQHvfLXlSuiRF",
        "service": "Service 2",
        "category": "AaNJmISp",
        "location": {
            "latitude": 28.208230318319345,
            "longitude": 110.20980948706095
        },
        "timestamp": "2024-06-06T17:02:45.845188"
    },
    {
        "name": "KcCkQozJuF",
        "address": "kgSzQJGhUOyZZDK",
        "service": "Service 1",
        "category": "lBhCRfiR",
        "location": {
            "latitude": 28.21426645735004,
            "longitude": 110.20493300197435
        },
        "timestamp": "2024-06-06T17:02:45.845191"
    },
    {
        "name": "PWMbJYLWvX",
        "address": "osVZxssplgMgGZp",
        "service": "Service 3",
        "category": "RLSUZrEM",
        "location": {
            "latitude": 28.212654174155155,
            "longitude": 110.21524002384832
        },
        "timestamp": "2024-06-06T17:02:45.845194"
    },
    {
        "name": "oBwAFZJPAB",
        "address": "tfctgrPqRhUJBSq",
        "service": "Service 2",
        "category": "qoAsHhKD",
        "location": {
            "latitude": 28.21792152129722,
            "longitude": 110.20401411378843
        },
        "timestamp": "2024-06-06T17:02:45.845197"
    },
    {
        "name": "AZEtSwkniN",
        "address": "rXkZeETOWnQixCL",
        "service": "Service 3",
        "category": "aMXZfCUi",
        "location": {
            "latitude": 28.22435592368703,
            "longitude": 110.20852591051299
        },
        "timestamp": "2024-06-06T17:02:45.845200"
    },
    {
        "name": "yFryLuIQFj",
        "address": "gwcHiGyDFVwKvTL",
        "service": "Service 2",
        "category": "KgVhUPWe",
        "location": {
            "latitude": 28.214923585479127,
            "longitude": 110.21259888687753
        },
        "timestamp": "2024-06-06T17:02:45.845214"
    },
    {
        "name": "blFbUDYQkF",
        "address": "ItoqDHgmzkcwJNJ",
        "service": "Service 1",
        "category": "EGAuWbBe",
        "location": {
            "latitude": 28.21706398594735,
            "longitude": 110.21289648184008
        },
        "timestamp": "2024-06-06T17:02:45.845221"
    },
    {
        "name": "CUHgpMAcGe",
        "address": "MsUenOjgrCGRJAN",
        "service": "Service 3",
        "category": "kvEieWNq",
        "location": {
            "latitude": 28.2108525876324,
            "longitude": 110.21025317764534
        },
        "timestamp": "2024-06-06T17:02:45.845258"
    },
    {
        "name": "RLfOgCIMvm",
        "address": "xTBNuzABYxVOaTV",
        "service": "Service 1",
        "category": "cNYAklYL",
        "location": {
            "latitude": 28.212015805112145,
            "longitude": 110.21151096582106
        },
        "timestamp": "2024-06-06T17:02:45.845262"
    },
    {
        "name": "CCKOkJefbm",
        "address": "KyGaKRfHqYYAzRL",
        "service": "Service 3",
        "category": "FjcJQeHu",
        "location": {
            "latitude": 28.224208291667146,
            "longitude": 110.21105642246637
        },
        "timestamp": "2024-06-06T17:02:45.845282"
    },
    {
        "name": "MddMRzACsR",
        "address": "yYZjspgpvBWZmrs",
        "service": "Service 1",
        "category": "HVdRMSfv",
        "location": {
            "latitude": 28.208483397196808,
            "longitude": 110.20779098157558
        },
        "timestamp": "2024-06-06T17:02:45.845328"
    },
    {
        "name": "AbRUwoSckx",
        "address": "UQeQkRcYOpQcbHS",
        "service": "Service 3",
        "category": "UkhdhRRZ",
        "location": {
            "latitude": 28.218858756021252,
            "longitude": 110.20950834283387
        },
        "timestamp": "2024-06-06T17:02:45.845338"
    },
    {
        "name": "xPcrPpfcqa",
        "address": "UZDlDWLsjyecJEi",
        "service": "Service 3",
        "category": "GaMacXrY",
        "location": {
            "latitude": 28.22094986985573,
            "longitude": 110.20555016005804
        },
        "timestamp": "2024-06-06T17:02:45.845346"
    },
    {
        "name": "TEIiVgTWYR",
        "address": "hqJtDRaVXQUyxVT",
        "service": "Service 3",
        "category": "yBKQacRx",
        "location": {
            "latitude": 28.221421667479383,
            "longitude": 110.20453111656198
        },
        "timestamp": "2024-06-06T17:02:45.845373"
    },
    {
        "name": "mlInLIOVmV",
        "address": "SRiSTDrnVWlQpja",
        "service": "Service 3",
        "category": "eMoEvMrb",
        "location": {
            "latitude": 28.216987609806747,
            "longitude": 110.19896289862167
        },
        "timestamp": "2024-06-06T17:02:45.845380"
    },
    {
        "name": "pgtkTnrUQB",
        "address": "VVepUPJIGMIYkpI",
        "service": "Service 2",
        "category": "uehvzNlk",
        "location": {
            "latitude": 28.209932191252197,
            "longitude": 110.19802553650737
        },
        "timestamp": "2024-06-06T17:02:45.845393"
    },
    {
        "name": "DOESlGpJRF",
        "address": "NlTZmQEPgIkicIG",
        "service": "Service 3",
        "category": "XEhkEuuZ",
        "location": {
            "latitude": 28.213272784786273,
            "longitude": 110.21396593039107
        },
        "timestamp": "2024-06-06T17:02:45.845398"
    },
    {
        "name": "EgYOjvnuNN",
        "address": "UkTXNDQBLQmhsqB",
        "service": "Service 2",
        "category": "ZfwQhLmR",
        "location": {
            "latitude": 28.212935794654115,
            "longitude": 110.20029362745733
        },
        "timestamp": "2024-06-06T17:02:45.845401"
    },
    {
        "name": "BKEfoMOzuJ",
        "address": "rzkMTeNeUFsjGMk",
        "service": "Service 3",
        "category": "WPHyfAnG",
        "location": {
            "latitude": 28.217312563750024,
            "longitude": 110.20580392866657
        },
        "timestamp": "2024-06-06T17:02:45.845404"
    },
    {
        "name": "dhWUgcKBHi",
        "address": "srrsUMaSTopdavm",
        "service": "Service 3",
        "category": "qXZrFEXZ",
        "location": {
            "latitude": 28.21701476402248,
            "longitude": 110.21074327745657
        },
        "timestamp": "2024-06-06T17:02:45.845407"
    },
    {
        "name": "NaHWUtOARy",
        "address": "UGxXTSGUadszJSB",
        "service": "Service 2",
        "category": "QfZtktef",
        "location": {
            "latitude": 28.21253358960099,
            "longitude": 110.19981075840934
        },
        "timestamp": "2024-06-06T17:02:45.845410"
    },
    {
        "name": "PDGJEsfzGA",
        "address": "FBzTLKPjAtECjgP",
        "service": "Service 3",
        "category": "tCRZHBeb",
        "location": {
            "latitude": 28.214533366547315,
            "longitude": 110.21081990511398
        },
        "timestamp": "2024-06-06T17:02:45.845415"
    },
    {
        "name": "JJkGtvbbuR",
        "address": "TKYWDiLuIRvpvuF",
        "service": "Service 2",
        "category": "CKnkVjCk",
        "location": {
            "latitude": 28.222863347065722,
            "longitude": 110.20815859356682
        },
        "timestamp": "2024-06-06T17:02:45.845418"
    },
    {
        "name": "LMJDkAbJxY",
        "address": "YTEQngsIhyguqDc",
        "service": "Service 3",
        "category": "tJnFNWyg",
        "location": {
            "latitude": 28.21471858925884,
            "longitude": 110.2064987156249
        },
        "timestamp": "2024-06-06T17:02:45.845421"
    },
    {
        "name": "gpRVdXRhPg",
        "address": "wuLgMNLXakXEZLB",
        "service": "Service 2",
        "category": "dFEkvFjT",
        "location": {
            "latitude": 28.215197181338315,
            "longitude": 110.21168837215431
        },
        "timestamp": "2024-06-06T17:02:45.845424"
    },
    {
        "name": "drAuTEwieV",
        "address": "utTkZeXojURFaXc",
        "service": "Service 1",
        "category": "ElwWcvaV",
        "location": {
            "latitude": 28.209227369458173,
            "longitude": 110.21398881681318
        },
        "timestamp": "2024-06-06T17:02:45.845427"
    },
    {
        "name": "ycCapOWCZh",
        "address": "ZFESwRQzxWwHANO",
        "service": "Service 1",
        "category": "kvtCXPAg",
        "location": {
            "latitude": 28.223642234827555,
            "longitude": 110.21365313107495
        },
        "timestamp": "2024-06-06T17:02:45.845430"
    },
    {
        "name": "LscOOgmkDa",
        "address": "RuPKLywBEHsmYdq",
        "service": "Service 2",
        "category": "VdMWSYKs",
        "location": {
            "latitude": 28.220976870050563,
            "longitude": 110.20976309885538
        },
        "timestamp": "2024-06-06T17:02:45.845433"
    },
    {
        "name": "OvNALeItwo",
        "address": "vmMkyNbyWtvPUPT",
        "service": "Service 2",
        "category": "IosWjBlj",
        "location": {
            "latitude": 28.222831997169166,
            "longitude": 110.20037082264425
        },
        "timestamp": "2024-06-06T17:02:45.845436"
    },
    {
        "name": "CGTPsvNvoZ",
        "address": "XDTyEKquGONAVlj",
        "service": "Service 2",
        "category": "iYvmRRwB",
        "location": {
            "latitude": 28.21287511182677,
            "longitude": 110.19832167813004
        },
        "timestamp": "2024-06-06T17:02:45.845439"
    },
    {
        "name": "LmmIlOGpVC",
        "address": "PJIlFaPqgfPZjoY",
        "service": "Service 2",
        "category": "zXzdLCss",
        "location": {
            "latitude": 28.222341263525358,
            "longitude": 110.20584831859532
        },
        "timestamp": "2024-06-06T17:02:45.845442"
    },
    {
        "name": "LPVuiuEvrE",
        "address": "SvNwGktWqDrdBTT",
        "service": "Service 2",
        "category": "FoRbaoNS",
        "location": {
            "latitude": 28.222222086293982,
            "longitude": 110.20774028476616
        },
        "timestamp": "2024-06-06T17:02:45.845445"
    },
    {
        "name": "KmGybTgTjG",
        "address": "yHzEJQxdrmYDDMJ",
        "service": "Service 3",
        "category": "fOqyJjkS",
        "location": {
            "latitude": 28.21267383338453,
            "longitude": 110.2054780472514
        },
        "timestamp": "2024-06-06T17:02:45.845448"
    },
    {
        "name": "AHnvXKJjai",
        "address": "YPVeionbwejzKko",
        "service": "Service 1",
        "category": "ltdLlxJV",
        "location": {
            "latitude": 28.21955091566262,
            "longitude": 110.20240941104859
        },
        "timestamp": "2024-06-06T17:02:45.845451"
    },
    {
        "name": "ulSLchhkvb",
        "address": "AsoTUdbdFmTacFM",
        "service": "Service 1",
        "category": "nhqbEIQF",
        "location": {
            "latitude": 28.22236797878534,
            "longitude": 110.20404344986746
        },
        "timestamp": "2024-06-06T17:02:45.845454"
    },
    {
        "name": "BrAsSxUYMq",
        "address": "oWxgVtBLPozwLnS",
        "service": "Service 3",
        "category": "XLmEHonY",
        "location": {
            "latitude": 28.21111481909351,
            "longitude": 110.21022257275023
        },
        "timestamp": "2024-06-06T17:02:45.845457"
    },
    {
        "name": "SZUewApKyj",
        "address": "FOMmjTiNgKYMWXf",
        "service": "Service 3",
        "category": "oAitnBLn",
        "location": {
            "latitude": 28.213316169392474,
            "longitude": 110.20981810797113
        },
        "timestamp": "2024-06-06T17:02:45.845461"
    },
    {
        "name": "atdHuQzloo",
        "address": "ccmEnvHtLaPFrOe",
        "service": "Service 2",
        "category": "GwJAtksG",
        "location": {
            "latitude": 28.21585601195335,
            "longitude": 110.21386126593848
        },
        "timestamp": "2024-06-06T17:02:45.845464"
    },
    {
        "name": "pssvQhBjGO",
        "address": "SYudPHpUcKrqfrq",
        "service": "Service 2",
        "category": "UwFCzGyp",
        "location": {
            "latitude": 28.21810566979204,
            "longitude": 110.20642448622336
        },
        "timestamp": "2024-06-06T17:02:45.845467"
    },
    {
        "name": "gWRuEBpSEi",
        "address": "yqpEJozCvBhwveB",
        "service": "Service 2",
        "category": "TCOAflBu",
        "location": {
            "latitude": 28.215348160557063,
            "longitude": 110.20239295228312
        },
        "timestamp": "2024-06-06T17:02:45.845470"
    },
    {
        "name": "EpvGQCqCuQ",
        "address": "nqKqxIcmsbXTcXD",
        "service": "Service 3",
        "category": "JraIbxIr",
        "location": {
            "latitude": 28.22164735088722,
            "longitude": 110.20034574914467
        },
        "timestamp": "2024-06-06T17:02:45.845501"
    },
    {
        "name": "qTuCcrrIVd",
        "address": "JASVAbjzysdVZuV",
        "service": "Service 3",
        "category": "YpOdSpgT",
        "location": {
            "latitude": 28.209711407217497,
            "longitude": 110.212302402696
        },
        "timestamp": "2024-06-06T17:02:45.845512"
    },
    {
        "name": "YNnPnabVpU",
        "address": "DoIqRtWYpMTnBen",
        "service": "Service 3",
        "category": "qsxJrKkQ",
        "location": {
            "latitude": 28.21689598542304,
            "longitude": 110.19874794295552
        },
        "timestamp": "2024-06-06T17:02:45.845573"
    },
    {
        "name": "DQxscBNdDw",
        "address": "ppWJLicHrzaZGCn",
        "service": "Service 3",
        "category": "fwPSXuey",
        "location": {
            "latitude": 28.215418818352155,
            "longitude": 110.19860412811408
        },
        "timestamp": "2024-06-06T17:02:45.845595"
    },
    {
        "name": "WkRAcEKJXW",
        "address": "cRoayDNNckNfipR",
        "service": "Service 3",
        "category": "yxgzzEuN",
        "location": {
            "latitude": 28.219674012306672,
            "longitude": 110.19806701613052
        },
        "timestamp": "2024-06-06T17:02:45.845603"
    },
    {
        "name": "tXpiGABdTL",
        "address": "EWWGdGrFLEXMkmQ",
        "service": "Service 1",
        "category": "OvRSPeoJ",
        "location": {
            "latitude": 28.21653418157782,
            "longitude": 110.21442744476194
        },
        "timestamp": "2024-06-06T17:02:45.845610"
    },
    {
        "name": "uKcVZPSkuE",
        "address": "fYfTHSfNjeElSKc",
        "service": "Service 1",
        "category": "sNFDZjNe",
        "location": {
            "latitude": 28.211890538833458,
            "longitude": 110.2015804238777
        },
        "timestamp": "2024-06-06T17:02:45.845617"
    },
    {
        "name": "AQMctPMiHv",
        "address": "aFnVkcLZxnIvluw",
        "service": "Service 3",
        "category": "SGraZTfe",
        "location": {
            "latitude": 28.211344804262563,
            "longitude": 110.20811990195332
        },
        "timestamp": "2024-06-06T17:02:45.845624"
    },
    {
        "name": "IoKHmQfhpG",
        "address": "SIBADgdBWLivXOF",
        "service": "Service 2",
        "category": "PCEpTlaz",
        "location": {
            "latitude": 28.216416363898187,
            "longitude": 110.20660398177897
        },
        "timestamp": "2024-06-06T17:02:45.845675"
    },
    {
        "name": "mlthQTgKxJ",
        "address": "WThhUbgOvikbrli",
        "service": "Service 3",
        "category": "nIVGOBTt",
        "location": {
            "latitude": 28.20875937177188,
            "longitude": 110.21429275021369
        },
        "timestamp": "2024-06-06T17:02:45.845696"
    },
    {
        "name": "kdyueXgzYg",
        "address": "MVvsATpxpjnjGGN",
        "service": "Service 1",
        "category": "QCLPAeAS",
        "location": {
            "latitude": 28.219891259646094,
            "longitude": 110.21175168159597
        },
        "timestamp": "2024-06-06T17:02:45.845706"
    },
    {
        "name": "WAQXgdoQzy",
        "address": "iMThXIwaHTNZbAa",
        "service": "Service 1",
        "category": "BfhhiPWw",
        "location": {
            "latitude": 28.22211466805147,
            "longitude": 110.20296342422667
        },
        "timestamp": "2024-06-06T17:02:45.845713"
    },
    {
        "name": "InHAbERWFX",
        "address": "PNeuqmTCiYcIuaq",
        "service": "Service 2",
        "category": "ywLlhhIS",
        "location": {
            "latitude": 28.214370836002953,
            "longitude": 110.20549875042548
        },
        "timestamp": "2024-06-06T17:02:45.845720"
    },
    {
        "name": "huaGjFZPsm",
        "address": "DUGEkjKnZqMFJpQ",
        "service": "Service 1",
        "category": "lHkzKutd",
        "location": {
            "latitude": 28.211944335146274,
            "longitude": 110.20414736710937
        },
        "timestamp": "2024-06-06T17:02:45.845744"
    },
    {
        "name": "hpsiSOozSP",
        "address": "RnryxDnDsqgHsgV",
        "service": "Service 1",
        "category": "NoJDFSxJ",
        "location": {
            "latitude": 28.21853506643592,
            "longitude": 110.20932521423897
        },
        "timestamp": "2024-06-06T17:02:45.845786"
    },
    {
        "name": "qYJQhhuESz",
        "address": "fIFrSBXKXhfRuFM",
        "service": "Service 3",
        "category": "imUspXnh",
        "location": {
            "latitude": 28.220251673658773,
            "longitude": 110.20093600205931
        },
        "timestamp": "2024-06-06T17:02:45.845790"
    },
    {
        "name": "vdtKbuFQsG",
        "address": "bFufPndoGeLoaUs",
        "service": "Service 1",
        "category": "RgWvmotZ",
        "location": {
            "latitude": 28.21273240792056,
            "longitude": 110.20291295014236
        },
        "timestamp": "2024-06-06T17:02:45.845793"
    },
    {
        "name": "fRNQApokoa",
        "address": "AEiheUXhvSuUCpK",
        "service": "Service 3",
        "category": "NGMTnzzS",
        "location": {
            "latitude": 28.222213870107538,
            "longitude": 110.2098121281209
        },
        "timestamp": "2024-06-06T17:02:45.845797"
    },
    {
        "name": "hVGvabEHdW",
        "address": "tDIJqDdHRRUBlGy",
        "service": "Service 1",
        "category": "UwcteMLH",
        "location": {
            "latitude": 28.210871422445866,
            "longitude": 110.20381083282912
        },
        "timestamp": "2024-06-06T17:02:45.845800"
    },
    {
        "name": "rHyukcwhFC",
        "address": "joPFlGCcTHmcNOi",
        "service": "Service 2",
        "category": "qjIgtopQ",
        "location": {
            "latitude": 28.22441777314175,
            "longitude": 110.20806795689603
        },
        "timestamp": "2024-06-06T17:02:45.845803"
    },
    {
        "name": "GJzSgCHXKU",
        "address": "ZgoVArxWBnmFkRx",
        "service": "Service 2",
        "category": "TrxyGNbj",
        "location": {
            "latitude": 28.221162179135337,
            "longitude": 110.20487626269815
        },
        "timestamp": "2024-06-06T17:02:45.845819"
    },
    {
        "name": "DFsGHSZHon",
        "address": "HpQlClfZUJVORov",
        "service": "Service 2",
        "category": "ksFFoPHB",
        "location": {
            "latitude": 28.218055393911254,
            "longitude": 110.21429229843991
        },
        "timestamp": "2024-06-06T17:02:45.845824"
    },
    {
        "name": "cfKmRDuivp",
        "address": "MjHcRGrxJblddqG",
        "service": "Service 3",
        "category": "KARrNVpJ",
        "location": {
            "latitude": 28.21174720417453,
            "longitude": 110.2047148739479
        },
        "timestamp": "2024-06-06T17:02:45.845827"
    },
    {
        "name": "pwnPyHRsOo",
        "address": "qeDRGrFpCHrYmHn",
        "service": "Service 3",
        "category": "YXuLATYJ",
        "location": {
            "latitude": 28.221356357946675,
            "longitude": 110.20317757434465
        },
        "timestamp": "2024-06-06T17:02:45.845830"
    },
    {
        "name": "wGYPmXUxUS",
        "address": "GfjgwClhHJmEkIp",
        "service": "Service 1",
        "category": "aKNevzMS",
        "location": {
            "latitude": 28.211625189545053,
            "longitude": 110.2124515517519
        },
        "timestamp": "2024-06-06T17:02:45.845863"
    },
    {
        "name": "zwcFBbJrIg",
        "address": "DSPNSxvUqhBxpIC",
        "service": "Service 1",
        "category": "QuuACHeO",
        "location": {
            "latitude": 28.21054157319655,
            "longitude": 110.21196031856886
        },
        "timestamp": "2024-06-06T17:02:45.845887"
    },
    {
        "name": "QpodlOiUtp",
        "address": "eYtWJoyutYCLCDx",
        "service": "Service 1",
        "category": "XuuymBdi",
        "location": {
            "latitude": 28.21235533885886,
            "longitude": 110.20217870094066
        },
        "timestamp": "2024-06-06T17:02:45.845895"
    },
    {
        "name": "pClbrHqLyL",
        "address": "yRPKwqDJXqrrWmG",
        "service": "Service 3",
        "category": "ruSgniOG",
        "location": {
            "latitude": 28.224466847550804,
            "longitude": 110.21377939649689
        },
        "timestamp": "2024-06-06T17:02:45.845912"
    },
    {
        "name": "mFtFXXfKJa",
        "address": "KLuiMfhbBeidVeM",
        "service": "Service 1",
        "category": "JwOcDzAh",
        "location": {
            "latitude": 28.213787996617306,
            "longitude": 110.2107833160616
        },
        "timestamp": "2024-06-06T17:02:45.845950"
    },
    {
        "name": "guEJlBBRLe",
        "address": "dHcgFipSnAQsAHD",
        "service": "Service 2",
        "category": "ZqCgUQQE",
        "location": {
            "latitude": 28.209117171519818,
            "longitude": 110.20643413611434
        },
        "timestamp": "2024-06-06T17:02:45.845974"
    },
    {
        "name": "oUSWxFWlot",
        "address": "mLdnZAxTzvyghse",
        "service": "Service 1",
        "category": "OxtFnkCR",
        "location": {
            "latitude": 28.222991246586094,
            "longitude": 110.20492677059845
        },
        "timestamp": "2024-06-06T17:02:45.846000"
    },
    {
        "name": "pcPVkHfneA",
        "address": "dADMmwaiWmbUSqJ",
        "service": "Service 1",
        "category": "CTMHPCdm",
        "location": {
            "latitude": 28.212731826047904,
            "longitude": 110.21172382946065
        },
        "timestamp": "2024-06-06T17:02:45.846008"
    },
    {
        "name": "UaddDLwPQi",
        "address": "datiNJPhjwxSpdV",
        "service": "Service 2",
        "category": "wefazupg",
        "location": {
            "latitude": 28.222577019045218,
            "longitude": 110.20926086262583
        },
        "timestamp": "2024-06-06T17:02:45.846017"
    },
    {
        "name": "ukknCvrRQO",
        "address": "EjFIvgBbfFOnUWa",
        "service": "Service 3",
        "category": "QfpiEaUr",
        "location": {
            "latitude": 28.222808998496102,
            "longitude": 110.1984964722393
        },
        "timestamp": "2024-06-06T17:02:45.846075"
    },
    {
        "name": "dEvYDaOWnY",
        "address": "PuaExXHYGzRtvFG",
        "service": "Service 1",
        "category": "qhWWgkmJ",
        "location": {
            "latitude": 28.22095700522324,
            "longitude": 110.20177452880608
        },
        "timestamp": "2024-06-06T17:02:45.846080"
    },
    {
        "name": "ffMasZTzfk",
        "address": "DjgiXKeSrgTyQcv",
        "service": "Service 3",
        "category": "YYaXnfsL",
        "location": {
            "latitude": 28.211339498015988,
            "longitude": 110.2124198254062
        },
        "timestamp": "2024-06-06T17:02:45.846100"
    },
    {
        "name": "IEOCrZawOi",
        "address": "qMJXidLDJomurxs",
        "service": "Service 1",
        "category": "GmlRpbRn",
        "location": {
            "latitude": 28.214827871845905,
            "longitude": 110.21389198525353
        },
        "timestamp": "2024-06-06T17:02:45.846109"
    },
    {
        "name": "POpHfzAamu",
        "address": "JFFgDoDwysxiNaZ",
        "service": "Service 1",
        "category": "KDXfxwbG",
        "location": {
            "latitude": 28.21716598521875,
            "longitude": 110.21264273102071
        },
        "timestamp": "2024-06-06T17:02:45.846122"
    },
    {
        "name": "kyQiCFcZlX",
        "address": "gbWdBYqGVchSoef",
        "service": "Service 2",
        "category": "ulMexnOo",
        "location": {
            "latitude": 28.21635031738322,
            "longitude": 110.21469499147456
        },
        "timestamp": "2024-06-06T17:02:45.846129"
    },
    {
        "name": "QXZFSRyRLx",
        "address": "YCEAlFiIWqEVbfj",
        "service": "Service 3",
        "category": "WQyeanWg",
        "location": {
            "latitude": 28.21348253989599,
            "longitude": 110.20753790757011
        },
        "timestamp": "2024-06-06T17:02:45.846136"
    },
    {
        "name": "qUotIjNyYX",
        "address": "YWUlwHYKYIeGfrF",
        "service": "Service 1",
        "category": "XkyDRjCq",
        "location": {
            "latitude": 28.212123222103827,
            "longitude": 110.20855291381112
        },
        "timestamp": "2024-06-06T17:02:45.846143"
    },
    {
        "name": "emXrOqFKfH",
        "address": "ufjPZuhuiVKySMz",
        "service": "Service 3",
        "category": "rYnGphiT",
        "location": {
            "latitude": 28.22074128682519,
            "longitude": 110.20684444521794
        },
        "timestamp": "2024-06-06T17:02:45.846150"
    },
    {
        "name": "agmYxHCJqm",
        "address": "JLFcmtSdRTiTEgR",
        "service": "Service 2",
        "category": "LgnrieMi",
        "location": {
            "latitude": 28.22386535429024,
            "longitude": 110.20519511937856
        },
        "timestamp": "2024-06-06T17:02:45.846158"
    },
    {
        "name": "HUUSCWjXgV",
        "address": "SwlAPaeFUsSFthK",
        "service": "Service 1",
        "category": "KeCLYfup",
        "location": {
            "latitude": 28.21919112762649,
            "longitude": 110.21369017165297
        },
        "timestamp": "2024-06-06T17:02:45.846165"
    },
    {
        "name": "gQNquWNCuL",
        "address": "oifNQFPmJCEqgPQ",
        "service": "Service 1",
        "category": "DmeSXDOB",
        "location": {
            "latitude": 28.215169229438853,
            "longitude": 110.20369621783692
        },
        "timestamp": "2024-06-06T17:02:45.846172"
    },
    {
        "name": "UlnJebdhWK",
        "address": "RRyduTcctfBBXyK",
        "service": "Service 2",
        "category": "zjABsYNU",
        "location": {
            "latitude": 28.210627562051968,
            "longitude": 110.2018222442124
        },
        "timestamp": "2024-06-06T17:02:45.846179"
    },
    {
        "name": "EDMIbwgQtT",
        "address": "ddOBupLamgczJEu",
        "service": "Service 2",
        "category": "DaVYPXOI",
        "location": {
            "latitude": 28.218384024180395,
            "longitude": 110.20047942542743
        },
        "timestamp": "2024-06-06T17:02:45.846186"
    },
    {
        "name": "NykDnabujb",
        "address": "mpKFwHfKoBubJyK",
        "service": "Service 2",
        "category": "qHfXATUW",
        "location": {
            "latitude": 28.21048479399271,
            "longitude": 110.21498589823938
        },
        "timestamp": "2024-06-06T17:02:45.846193"
    },
    {
        "name": "KxaKREPTfY",
        "address": "npRyFUjaBvbtGxs",
        "service": "Service 2",
        "category": "ypSiByHS",
        "location": {
            "latitude": 28.220624930459916,
            "longitude": 110.20333754660392
        },
        "timestamp": "2024-06-06T17:02:45.846200"
    },
    {
        "name": "WoVrgrEfBZ",
        "address": "WYAIJTRVeWZlfwW",
        "service": "Service 3",
        "category": "zQYJkdwu",
        "location": {
            "latitude": 28.2150707564509,
            "longitude": 110.20112313150898
        },
        "timestamp": "2024-06-06T17:02:45.846207"
    },
    {
        "name": "GFMckTlLTo",
        "address": "WvTROAhnYoMmxPq",
        "service": "Service 1",
        "category": "EfKZaMQd",
        "location": {
            "latitude": 28.21377142234525,
            "longitude": 110.2052802359357
        },
        "timestamp": "2024-06-06T17:02:45.846243"
    },
    {
        "name": "PZNwVTqsHy",
        "address": "bXwinIfqSsJviCp",
        "service": "Service 2",
        "category": "gnOOOzHG",
        "location": {
            "latitude": 28.22399328905565,
            "longitude": 110.21361224184824
        },
        "timestamp": "2024-06-06T17:02:45.846250"
    },
    {
        "name": "DRQJQWWGkL",
        "address": "ksYwluZBcrSTZxq",
        "service": "Service 3",
        "category": "JJagWiRB",
        "location": {
            "latitude": 28.220143195866132,
            "longitude": 110.20821900033505
        },
        "timestamp": "2024-06-06T17:02:45.846254"
    },
    {
        "name": "JsrdVDBWKT",
        "address": "nFYLUgjwzaUvTSm",
        "service": "Service 3",
        "category": "wTpZQKLe",
        "location": {
            "latitude": 28.21525681427297,
            "longitude": 110.21255516722677
        },
        "timestamp": "2024-06-06T17:02:45.846257"
    },
    {
        "name": "pgMiTjEqRZ",
        "address": "pLpikiHptwgSRZz",
        "service": "Service 2",
        "category": "itPcfNne",
        "location": {
            "latitude": 28.22092132501572,
            "longitude": 110.20485960962378
        },
        "timestamp": "2024-06-06T17:02:45.846263"
    },
    {
        "name": "heIwyqOXbd",
        "address": "TePakZtYmYqdzZr",
        "service": "Service 2",
        "category": "rdXaRPyo",
        "location": {
            "latitude": 28.213935052386383,
            "longitude": 110.21173081017054
        },
        "timestamp": "2024-06-06T17:02:45.846266"
    },
    {
        "name": "pbxaGkrZKq",
        "address": "kFAtQFMPYnCwCjW",
        "service": "Service 2",
        "category": "yDKDOyAF",
        "location": {
            "latitude": 28.21156693716348,
            "longitude": 110.20193172834013
        },
        "timestamp": "2024-06-06T17:02:45.846269"
    },
    {
        "name": "QqKdrKHATX",
        "address": "iopWqQlGHGzotsc",
        "service": "Service 2",
        "category": "WreGsaUc",
        "location": {
            "latitude": 28.211669498919157,
            "longitude": 110.20890457419053
        },
        "timestamp": "2024-06-06T17:02:45.846272"
    },
    {
        "name": "dRkslLiTYw",
        "address": "WTzgBWBFSUQKJQu",
        "service": "Service 3",
        "category": "TxtfHuyj",
        "location": {
            "latitude": 28.215163498581493,
            "longitude": 110.21317222339576
        },
        "timestamp": "2024-06-06T17:02:45.846275"
    },
    {
        "name": "PNsstFuUZu",
        "address": "YJYpdeUylPygQwU",
        "service": "Service 3",
        "category": "pUuCWybg",
        "location": {
            "latitude": 28.222035556055516,
            "longitude": 110.20536600264222
        },
        "timestamp": "2024-06-06T17:02:45.846279"
    },
    {
        "name": "aDoeKXvfha",
        "address": "WZVrsWYHsOiXCei",
        "service": "Service 3",
        "category": "TCWiLFib",
        "location": {
            "latitude": 28.217549499519027,
            "longitude": 110.21175304378932
        },
        "timestamp": "2024-06-06T17:02:45.846283"
    },
    {
        "name": "BDunJEMmxu",
        "address": "abkBLVfEKDZWcIS",
        "service": "Service 1",
        "category": "ubbPKoOT",
        "location": {
            "latitude": 28.223301250074105,
            "longitude": 110.21448992422923
        },
        "timestamp": "2024-06-06T17:02:45.846286"
    },
    {
        "name": "XarJuNYLrp",
        "address": "WhidSMxSFTtnHHf",
        "service": "Service 3",
        "category": "WuMdejzT",
        "location": {
            "latitude": 28.21333438700394,
            "longitude": 110.21312085916702
        },
        "timestamp": "2024-06-06T17:02:45.846289"
    },
    {
        "name": "xkVXemjxnI",
        "address": "cXukzuFBVsGBPtf",
        "service": "Service 1",
        "category": "VoQMTebh",
        "location": {
            "latitude": 28.20853711971564,
            "longitude": 110.20477469848996
        },
        "timestamp": "2024-06-06T17:02:45.846292"
    },
    {
        "name": "daITLLkMfp",
        "address": "tYwyhIGuNXQiQAk",
        "service": "Service 1",
        "category": "rFUPnHGc",
        "location": {
            "latitude": 28.21119057733006,
            "longitude": 110.20802511009855
        },
        "timestamp": "2024-06-06T17:02:45.846295"
    },
    {
        "name": "EPUGXkXNdu",
        "address": "DGZOtjUfGOzkcri",
        "service": "Service 1",
        "category": "nxfnMIAB",
        "location": {
            "latitude": 28.224247058978197,
            "longitude": 110.21433980750089
        },
        "timestamp": "2024-06-06T17:02:45.846297"
    },
    {
        "name": "kUThDEQUZJ",
        "address": "PsQlhWZmKLdzekK",
        "service": "Service 3",
        "category": "ajrKbUCU",
        "location": {
            "latitude": 28.222911143879415,
            "longitude": 110.19883848163813
        },
        "timestamp": "2024-06-06T17:02:45.846300"
    },
    {
        "name": "UglpFUsJuo",
        "address": "mOIRvVSrNSBuBid",
        "service": "Service 1",
        "category": "ikYcuoRe",
        "location": {
            "latitude": 28.214995626043777,
            "longitude": 110.20357005112362
        },
        "timestamp": "2024-06-06T17:02:45.846303"
    },
    {
        "name": "ZmSPMTTxpX",
        "address": "tnYdMtvLeWjElXC",
        "service": "Service 1",
        "category": "TABWErsS",
        "location": {
            "latitude": 28.209379377866302,
            "longitude": 110.2008600850508
        },
        "timestamp": "2024-06-06T17:02:45.846306"
    },
    {
        "name": "PnURpthivW",
        "address": "ZVHdlwtiFAYWdus",
        "service": "Service 1",
        "category": "sdhgtFhR",
        "location": {
            "latitude": 28.2131788910558,
            "longitude": 110.214871324522
        },
        "timestamp": "2024-06-06T17:02:45.846310"
    },
    {
        "name": "nNFMkaJAyf",
        "address": "FXndrQbAMAuwtYT",
        "service": "Service 3",
        "category": "UaIvWWPq",
        "location": {
            "latitude": 28.2173975529896,
            "longitude": 110.21325024235381
        },
        "timestamp": "2024-06-06T17:02:45.846313"
    },
    {
        "name": "kFYOyZaCHK",
        "address": "cbQXPkXFxxzVkPr",
        "service": "Service 3",
        "category": "MPppaehh",
        "location": {
            "latitude": 28.22012083496465,
            "longitude": 110.20651020282966
        },
        "timestamp": "2024-06-06T17:02:45.846315"
    },
    {
        "name": "XCbwmiZypL",
        "address": "gmxjpXAbxtbmKYt",
        "service": "Service 1",
        "category": "vnjSMNIy",
        "location": {
            "latitude": 28.208584778451666,
            "longitude": 110.21090377408213
        },
        "timestamp": "2024-06-06T17:02:45.846319"
    },
    {
        "name": "mqcdfIdjDk",
        "address": "DZHoncryIUVlMEG",
        "service": "Service 2",
        "category": "JwlwDkkx",
        "location": {
            "latitude": 28.215108521343907,
            "longitude": 110.20011670005196
        },
        "timestamp": "2024-06-06T17:02:45.846322"
    },
    {
        "name": "FKTAhDDahI",
        "address": "gysEsdfTYQfiBjs",
        "service": "Service 1",
        "category": "ythSwlto",
        "location": {
            "latitude": 28.2221755958283,
            "longitude": 110.20825557489333
        },
        "timestamp": "2024-06-06T17:02:45.846325"
    },
    {
        "name": "ByxRMOZTRa",
        "address": "lvaUboELTnoUavD",
        "service": "Service 1",
        "category": "vUxXhWxo",
        "location": {
            "latitude": 28.216044975284493,
            "longitude": 110.20714909628406
        },
        "timestamp": "2024-06-06T17:02:45.846328"
    },
    {
        "name": "hxfABPMrTK",
        "address": "ZbsmCbbKxOoWHse",
        "service": "Service 3",
        "category": "mJFaTcSu",
        "location": {
            "latitude": 28.212564279089353,
            "longitude": 110.20109228653745
        },
        "timestamp": "2024-06-06T17:02:45.846349"
    },
    {
        "name": "AitCNFMKul",
        "address": "pvGSeYxlcZhhsmY",
        "service": "Service 2",
        "category": "KzpOokBq",
        "location": {
            "latitude": 28.208689346964626,
            "longitude": 110.2072484013852
        },
        "timestamp": "2024-06-06T17:02:45.846357"
    },
    {
        "name": "RcbPbiFfUF",
        "address": "DaFeqVAIyuBLVga",
        "service": "Service 1",
        "category": "ghuDhvhu",
        "location": {
            "latitude": 28.20948293121892,
            "longitude": 110.21147671426645
        },
        "timestamp": "2024-06-06T17:02:45.846364"
    },
    {
        "name": "wkSBxyQEAH",
        "address": "odvzqSdtuYjuSUr",
        "service": "Service 2",
        "category": "UAtyjsJQ",
        "location": {
            "latitude": 28.223278785460703,
            "longitude": 110.19940997730703
        },
        "timestamp": "2024-06-06T17:02:45.846396"
    },