[
    {
        "name": "HbyGdtQuAS",
        "address": "nysrbsIFEcUBdxa",
        "service": "Service 2",
        "category": "CufQgDhP",
        "location": {
            "latitude": 28.21114646876762,
            "longitude": 110.20616490025735
        },
        "timestamp": "2024-06-06T17:02:45.844535"
    },
    {
        "name": "OkEFSqnxug",
        "address": "xtvlBxWemRmlKfv",
        "service": "Service 2",
        "category": "dHdyDJTc",
        "location": {
            "latitude": 28.21348103486678,
            "longitude": 110.21175553957731
        },
        "timestamp": "2024-06-06T17:02:45.844546"
    },
    {
        "name": "KvzxdsnimQ",
        "address": "ojuiTxUTuIHxVrS",
        "service": "Service 3",
        "category": "rDErkGyl",
        "location": {
            "latitude": 28.221661781830896,
            "longitude": 110.21056021610117
        },
        "timestamp": "2024-06-06T17:02:45.844550"
    },
    {
        "name": "YfeMOnALmS",
        "address": "fAblvgBILIrTeYa",
        "service": "Service 1",
        "category": "iPOsPaOn",
        "location": {
            "latitude": 28.21232789053095,
            "longitude": 110.21325478281886
        },
        "timestamp": "2024-06-06T17:02:45.844554"
    },
    {
        "name": "xwjCcHFpsQ",
        "address": "CmBPtYovaylkhTO",
        "service": "Service 2",
        "category": "XRnWKrsy",
        "location": {
            "latitude": 28.216862573413394,
            "longitude": 110.20217916875241
        },
        "timestamp": "2024-06-06T17:02:45.844557"
    },
    {
        "name": "MFkFNkRTvv",
        "address": "fvssjeeHqhwqiAj",
        "service": "Service 2",
        "category": "XdfDnyaD",
        "location": {
            "latitude": 28.224286770237406,
            "longitude": 110.2087179134012
        },
        "timestamp": "2024-06-06T17:02:45.844561"
    },
    {
        "name": "dytqMNhLGf",
        "address": "chFnqVATDvcfeRY",
        "service": "Service 2",
        "category": "rEKHyOmy",
        "location": {
            "latitude": 28.223878918223786,
            "longitude": 110.20869771602797
        },
        "timestamp": "2024-06-06T17:02:45.844564"
    },
    {
        "name": "nmmKfCDqHP",
        "address": "WovKcfhPHELtUIc",
        "service": "Service 3",
        "category": "VuUEOjRF",
        "location": {
            "latitude": 28.223896502112726,
            "longitude": 110.20975419108302
        },
        "timestamp": "2024-06-06T17:02:45.844567"
    },
    {
        "name": "IGqqGTqKZG",
        "address": "HuVjrDmSxyzpDdb",
        "service": "Service 1",
        "category": "SOonQZMJ",
        "location": {
            "latitude": 28.212900076399226,
            "longitude": 110.21343317863774
        },
        "timestamp": "2024-06-06T17:02:45.844570"
    },
    {
        "name": "ixVAsTaJQa",
        "address": "QbTltLBusREmVnF",
        "service": "Service 1",
        "category": "YKJjPvrN",
        "location": {
            "latitude": 28.215187090381917,
            "longitude": 110.20717315231781
        },
        "timestamp": "2024-06-06T17:02:45.844573"
    },
    {
        "name": "HfjawVfOtu",
        "address": "YkeqYPUOBTPZQJH",
        "service": "Service 3",
        "category": "yQChFufs",
        "location": {
            "latitude": 28.215444298553482,
            "longitude": 110.20090801908461
        },
        "timestamp": "2024-06-06T17:02:45.844576"
    },
    {
        "name": "ROOepxScIa",
        "address": "xNNlcdymOrMOhvH",
        "service": "Service 3",
        "category": "QvKSnVaq",
        "location": {
            "latitude": 28.20901971498947,
            "longitude": 110.20483651935423
        },
        "timestamp": "2024-06-06T17:02:45.844579"
    },
    {
        "name": "TzfoNCVgnA",
        "address": "CJQQhBzrThfYPSb",
        "service": "Service 2",
        "category": "mAKeDzrs",
        "location": {
            "latitude": 28.215527953826257,
            "longitude": 110.20709506766642
        },
        "timestamp": "2024-06-06T17:02:45.844582"
    },
    {
        "name": "TDaTRPDuMM",
        "address": "UDkeXUbdfmbqvgL",
        "service": "Service 3",
        "category": "CUCsOGiq",
        "location": {
            "latitude": 28.221643979684497,
            "longitude": 110.20690113418624
        },
        "timestamp": "2024-06-06T17:02:45.844585"
    },
    {
        "name": "UnMrufhKrb",
        "address": "wFeQRcWKfosSjYn",
        "service": "Service 1",
        "category": "dDmAmddU",
        "location": {
            "latitude": 28.220793595850896,
            "longitude": 110.19922083948103
        },
        "timestamp": "2024-06-06T17:02:45.844588"
    },
    {
        "name": "XDokXzgMkq",
        "address": "LhYYQvOwYtHjZqm",
        "service": "Service 1",
        "category": "QLjIbhSs",
        "location": {
            "latitude": 28.20841802236635,
            "longitude": 110.2000185533261
        },
        "timestamp": "2024-06-06T17:02:45.844591"
    },
    {
        "name": "XGlChZPzLI",
        "address": "HxlKBWLEQuDCPfp",
        "service": "Service 2",
        "category": "orjQdpbh",
        "location": {
            "latitude": 28.21143533746806,
            "longitude": 110.2115742303479
        },
        "timestamp": "2024-06-06T17:02:45.844594"
    },
    {
        "name": "xFruEADmWG",
        "address": "BtvFEoMNlwwOMme",
        "service": "Service 1",
        "category": "xLVoPPNm",
        "location": {
            "latitude": 28.21148498210867,
            "longitude": 110.21284345108259
        },
        "timestamp": "2024-06-06T17:02:45.844597"
    },
    {
        "name": "pccVBAEjgq",
        "address": "nxUnjGPQZSQWgaw",
        "service": "Service 3",
        "category": "fQugjNiD",
        "location": {
            "latitude": 28.21552492651579,
            "longitude": 110.21274911702889
        },
        "timestamp": "2024-06-06T17:02:45.844600"
    },
    {
        "name": "WULxfssjIC",
        "address": "xqsoYdYGrGVDLLX",
        "service": "Service 3",
        "category": "hFbyWYyx",
        "location": {
            "latitude": 28.222104743133567,
            "longitude": 110.20573777931496
        },
        "timestamp": "2024-06-06T17:02:45.844603"
    },
    {
        "name": "RJGzaWEyUK",
        "address": "MbgXPqhKxdpgpiS",
        "service": "Service 1",
        "category": "UIEemZPB",
        "location": {
            "latitude": 28.220594452706376,
            "longitude": 110.20879867878485
        },
        "timestamp": "2024-06-06T17:02:45.844608"
    },
    {
        "name": "ueJzLCQCsz",
        "address": "vwyuuuJspqAAMqX",
        "service": "Service 1",
        "category": "ERyAkMPB",
        "location": {
            "latitude": 28.215402513093096,
            "longitude": 110.2155056585441
        },
        "timestamp": "2024-06-06T17:02:45.844611"
    },
    {
        "name": "lRYVEyXtsV",
        "address": "sEtszgCUCcnFUJJ",
        "service": "Service 2",
        "category": "KyOidmsa",
        "location": {
            "latitude": 28.213408939292016,
            "longitude": 110.2130010586777
        },
        "timestamp": "2024-06-06T17:02:45.844614"
    }
]